{"type":"FeatureCollection","features":[{"type":"Feature","geometry":{"coordinates":[2.351064327131835,48.85284931542226],"type":"Point"},"properties":{"type":"WC","statut":"Hors service","adresse":"2 quai de l archeveche","arrondissement":"75004","horaire":"Horaires du parc","acces_pmr":"Non","relais_bebe":"Non","url_fiche_equipement":"https:\/\/www.paris.fr\/lieux\/square-jean-xxiii-35","geo_point_2d":{"lon":2.351064327131835,"lat":48.85284931542226}}},{"type":"Feature","geometry":{"coordinates":[2.35003599988823,48.86155799965233],"type":"Point"},"properties":{"type":"Sanisette","statut":"En service","adresse":"36 bd de sebastopol","arrondissement":"75004","horaire":"06h00 - 22h00","acces_pmr":"Oui","relais_bebe":"Non","url_fiche_equipement":null,"geo_point_2d":{"lon":2.35003599988823,"lat":48.86155799965233}}},{"type":"Feature","geometry":{"coordinates":[2.337260643906852,48.84221838628398],"type":"Point"},"properties":{"type":"Sanisette","statut":"En service","adresse":"10 avenue de l observatoire","arrondissement":"75006","horaire":"Horaires du parc","acces_pmr":"Oui","relais_bebe":"Non","url_fiche_equipement":"https:\/\/www.paris.fr\/lieux\/jardin-des-grands-explorateurs-marco-polo-et-cavelier-de-la-salle-2834","geo_point_2d":{"lon":2.337260643906852,"lat":48.84221838628398}}},{"type":"Feature","geometry":{"coordinates":[2.3275829994274915,48.84286800014476],"type":"Point"},"properties":{"type":"Sanisette","statut":"En service","adresse":"93b bd du montparnasse","arrondissement":"75006","horaire":"06h00 - 22h00","acces_pmr":"Non","relais_bebe":"Non","url_fiche_equipement":null,"geo_point_2d":{"lon":2.3275829994274915,"lat":48.84286800014476}}},{"type":"Feature","geometry":{"coordinates":[2.332351000486413,48.84122000004061],"type":"Point"},"properties":{"type":"Sanisette","statut":"En service","adresse":"135b bd du montparnasse","arrondissement":"75006","horaire":"06h00 - 22h00","acces_pmr":"Oui","relais_bebe":"Non","url_fiche_equipement":null,"geo_point_2d":{"lon":2.332351000486413,"lat":48.84122000004061}}},{"type":"Feature","geometry":{"coordinates":[2.3051089994689358,48.85433100021918],"type":"Point"},"properties":{"type":"Sanisette","statut":"En service","adresse":"2t pl joffre","arrondissement":"75007","horaire":"24\/24h","acces_pmr":"Oui","relais_bebe":"Non","url_fiche_equipement":null,"geo_point_2d":{"lon":2.3051089994689358,"lat":48.85433100021918}}},{"type":"Feature","geometry":{"coordinates":[2.3614029999510397,48.87629499978287],"type":"Point"},"properties":{"type":"Sanisette","statut":"En service","adresse":"1 av de verdun","arrondissement":"75010","horaire":"24\/24h","acces_pmr":"Oui","relais_bebe":"Non","url_fiche_equipement":null,"geo_point_2d":{"lon":2.3614029999510397,"lat":48.87629499978287}}},{"type":"Feature","geometry":{"coordinates":[2.3708719998770422,48.87743100005244],"type":"Point"},"properties":{"type":"Sanisette","statut":"En service","adresse":"81b bd de la villette","arrondissement":"75010","horaire":"06h00 - 22h00","acces_pmr":"Oui","relais_bebe":"Non","url_fiche_equipement":null,"geo_point_2d":{"lon":2.3708719998770422,"lat":48.87743100005244}}},{"type":"Feature","geometry":{"coordinates":[2.37761300023142,48.86576100043247],"type":"Point"},"properties":{"type":"Sanisette","statut":"En service","adresse":"96 rue oberkampf","arrondissement":"75011","horaire":"06h00 - 22h00","acces_pmr":"Oui","relais_bebe":"Non","url_fiche_equipement":null,"geo_point_2d":{"lon":2.37761300023142,"lat":48.86576100043247}}},{"type":"Feature","geometry":{"coordinates":[2.4039110734655846,48.84657172830047],"type":"Point"},"properties":{"type":"WC","statut":"En service","adresse":"30 rue du rendez-vous","arrondissement":"75012","horaire":"Horaires du parc","acces_pmr":"Oui","relais_bebe":"Non","url_fiche_equipement":"https:\/\/www.paris.fr\/lieux\/jardin-debergue-rendez-vous-2848","geo_point_2d":{"lon":2.4039110734655846,"lat":48.84657172830047}}},{"type":"Feature","geometry":{"coordinates":[2.389580000482424,48.838922999875344],"type":"Point"},"properties":{"type":"Sanisette","statut":"En service","adresse":"2 v bd de reuilly","arrondissement":"75012","horaire":"06h00 - 22h00","acces_pmr":"Oui","relais_bebe":"Non","url_fiche_equipement":null,"geo_point_2d":{"lon":2.389580000482424,"lat":48.838922999875344}}},{"type":"Feature","geometry":{"coordinates":[2.37180299975841,48.847455999950604],"type":"Point"},"properties":{"type":"Sanisette","statut":"En service","adresse":"12 rue de lyon","arrondissement":"75012","horaire":"06h00 - 22h00","acces_pmr":"Oui","relais_bebe":"Non","url_fiche_equipement":null,"geo_point_2d":{"lon":2.37180299975841,"lat":48.847455999950604}}},{"type":"Feature","geometry":{"coordinates":[2.392042000365784,48.840502999686144],"type":"Point"},"properties":{"type":"Sanisette","statut":"En service","adresse":"2 rue paul dukas","arrondissement":"75012","horaire":"06h00 - 22h00","acces_pmr":"Oui","relais_bebe":"Non","url_fiche_equipement":null,"geo_point_2d":{"lon":2.392042000365784,"lat":48.840502999686144}}},{"type":"Feature","geometry":{"coordinates":[2.3673178731393754,48.827498385447356],"type":"Point"},"properties":{"type":"WC","statut":"En service","adresse":"93 rue du chateau des rentiers","arrondissement":"75013","horaire":"Horaires du parc","acces_pmr":"Non","relais_bebe":"Non","url_fiche_equipement":"https:\/\/www.paris.fr\/lieux\/square-florence-blumenthal-2523","geo_point_2d":{"lon":2.3673178731393754,"lat":48.827498385447356}}},{"type":"Feature","geometry":{"coordinates":[2.3485091460670224,48.82302967544841],"type":"Point"},"properties":{"type":"WC","statut":"En service","adresse":"22 rue de la fontaine a mulard","arrondissement":"75013","horaire":"Horaires du parc","acces_pmr":"Non","relais_bebe":"Non","url_fiche_equipement":"https:\/\/www.paris.fr\/lieux\/square-paul-grimault-2567","geo_point_2d":{"lon":2.3485091460670224,"lat":48.82302967544841}}},{"type":"Feature","geometry":{"coordinates":[2.2898729994070504,48.85555399956984],"type":"Point"},"properties":{"type":"Sanisette","statut":"En service","adresse":"1 rue jean rey","arrondissement":"75015","horaire":"24\/24h","acces_pmr":"Oui","relais_bebe":"Non","url_fiche_equipement":null,"geo_point_2d":{"lon":2.2898729994070504,"lat":48.85555399956984}}},{"type":"Feature","geometry":{"coordinates":[2.2753980004073235,48.85125999992028],"type":"Point"},"properties":{"type":"Sanisette","statut":"En service","adresse":"22 rue gros","arrondissement":"75016","horaire":"06h00 - 22h00","acces_pmr":"Oui","relais_bebe":"Non","url_fiche_equipement":null,"geo_point_2d":{"lon":2.2753980004073235,"lat":48.85125999992028}}},{"type":"Feature","geometry":{"coordinates":[2.24571855392109,48.868443030700334],"type":"Point"},"properties":{"type":"WC","statut":"En service","adresse":"93 avenue de l' hippodrome","arrondissement":"75016","horaire":"Horaires du parc","acces_pmr":"Non","relais_bebe":"Oui","url_fiche_equipement":"https:\/\/www.paris.fr\/lieux\/parc-de-bagatelle-1808","geo_point_2d":{"lon":2.24571855392109,"lat":48.868443030700334}}},{"type":"Feature","geometry":{"coordinates":[2.2829540000409247,48.8811389996345],"type":"Point"},"properties":{"type":"Sanisette","statut":"En service","adresse":"3 av de la porte des ternes","arrondissement":"75017","horaire":"06h00 - 22h00","acces_pmr":"Oui","relais_bebe":"Non","url_fiche_equipement":null,"geo_point_2d":{"lon":2.2829540000409247,"lat":48.8811389996345}}},{"type":"Feature","geometry":{"coordinates":[2.329484000444752,48.897914000345686],"type":"Point"},"properties":{"type":"Sanisette","statut":"En service","adresse":"186 bd ney","arrondissement":"75018","horaire":"24\/24h","acces_pmr":"Oui","relais_bebe":"Non","url_fiche_equipement":null,"geo_point_2d":{"lon":2.329484000444752,"lat":48.897914000345686}}},{"type":"Feature","geometry":{"coordinates":[2.3551060006538584,48.88419800002976],"type":"Point"},"properties":{"type":"Sanisette","statut":"En service","adresse":"60 v bd de la chapelle","arrondissement":"75018","horaire":"06h00 - 22h00","acces_pmr":"Oui","relais_bebe":"Non","url_fiche_equipement":null,"geo_point_2d":{"lon":2.3551060006538584,"lat":48.88419800002976}}},{"type":"Feature","geometry":{"coordinates":[2.366573420983327,48.89989643206477],"type":"Point"},"properties":{"type":"WC","statut":"Hors service","adresse":"38 rue charles hermite","arrondissement":"75018","horaire":"Horaires du parc","acces_pmr":"Non","relais_bebe":"Non","url_fiche_equipement":"https:\/\/www.paris.fr\/lieux\/square-charles-hermite-2648","geo_point_2d":{"lon":2.366573420983327,"lat":48.89989643206477}}},{"type":"Feature","geometry":{"coordinates":[2.401213778352068,48.85392001355039],"type":"Point"},"properties":{"type":"WC","statut":"En service","adresse":"12 rue michel de bourges","arrondissement":"75020","horaire":"Horaires du parc","acces_pmr":"Non","relais_bebe":"Non","url_fiche_equipement":"https:\/\/www.paris.fr\/lieux\/jardin-casque-d-or-2713","geo_point_2d":{"lon":2.401213778352068,"lat":48.85392001355039}}},{"type":"Feature","geometry":{"coordinates":[2.4112649493156337,48.87081299107255],"type":"Point"},"properties":{"type":"WC","statut":"Hors service","adresse":"40 rue le vau","arrondissement":"75020","horaire":"Horaires du parc","acces_pmr":"Non","relais_bebe":"Oui","url_fiche_equipement":"https:\/\/www.paris.fr\/lieux\/square-emmanuel-fleury-2720","geo_point_2d":{"lon":2.4112649493156337,"lat":48.87081299107255}}},{"type":"Feature","geometry":{"coordinates":[2.415241999740021,48.85533899971065],"type":"Point"},"properties":{"type":"Sanisette","statut":"En service","adresse":"14 av du professeur andre lemierre","arrondissement":"75020","horaire":"06h00 - 22h00","acces_pmr":"Oui","relais_bebe":"Non","url_fiche_equipement":null,"geo_point_2d":{"lon":2.415241999740021,"lat":48.85533899971065}}},{"type":"Feature","geometry":{"coordinates":[2.40370184146147,48.849620046843484],"type":"Point"},"properties":{"type":"WC","statut":"En service","adresse":"2 rue de buzenval","arrondissement":"75020","horaire":"Horaires du parc","acces_pmr":"Oui","relais_bebe":"Non","url_fiche_equipement":"https:\/\/www.paris.fr\/lieux\/square-sarah-bernhardt-1774","geo_point_2d":{"lon":2.40370184146147,"lat":48.849620046843484}}},{"type":"Feature","geometry":{"coordinates":[2.340639000086698,48.86893600009567],"type":"Point"},"properties":{"type":"Sanisette","statut":"En service","adresse":"23 pl de la bourse","arrondissement":"75002","horaire":"06h00 - 22h00","acces_pmr":"Oui","relais_bebe":"Non","url_fiche_equipement":null,"geo_point_2d":{"lon":2.340639000086698,"lat":48.86893600009567}}},{"type":"Feature","geometry":{"coordinates":[2.367030999614015,48.86112300001341],"type":"Point"},"properties":{"type":"Sanisette","statut":"En service","adresse":"1 bd des filles du calvaire","arrondissement":"75003","horaire":"24\/24h","acces_pmr":"Oui","relais_bebe":"Non","url_fiche_equipement":null,"geo_point_2d":{"lon":2.367030999614015,"lat":48.86112300001341}}},{"type":"Feature","geometry":{"coordinates":[2.35117099989451,48.860529999632405],"type":"Point"},"properties":{"type":"Sanisette","statut":"En service","adresse":"118 rue saint-martin","arrondissement":"75004","horaire":"06h00 - 22h00","acces_pmr":"Oui","relais_bebe":"Non","url_fiche_equipement":null,"geo_point_2d":{"lon":2.35117099989451,"lat":48.860529999632405}}},{"type":"Feature","geometry":{"coordinates":[2.3606220006197094,48.84433299987727],"type":"Point"},"properties":{"type":"Sanisette","statut":"En service","adresse":"16 w rue buffon","arrondissement":"75005","horaire":"06h00 - 22h00","acces_pmr":"Oui","relais_bebe":"Non","url_fiche_equipement":null,"geo_point_2d":{"lon":2.3606220006197094,"lat":48.84433299987727}}},{"type":"Feature","geometry":{"coordinates":[2.3222825945335166,48.86181155673819],"type":"Point"},"properties":{"type":"Urinoir","statut":"Hors service","adresse":"21 quai anatole france","arrondissement":"75007","horaire":"10h00 - 22h00","acces_pmr":"Oui","relais_bebe":"Non","url_fiche_equipement":null,"geo_point_2d":{"lon":2.3222825945335166,"lat":48.86181155673819}}},{"type":"Feature","geometry":{"coordinates":[2.3061560915147212,48.87943422815411],"type":"Point"},"properties":{"type":"WC","statut":"En service","adresse":"1 place de la republique dominicaine","arrondissement":"75008","horaire":"Horaires du parc","acces_pmr":"Oui","relais_bebe":"Non","url_fiche_equipement":null,"geo_point_2d":{"lon":2.3061560915147212,"lat":48.87943422815411}}},{"type":"Feature","geometry":{"coordinates":[2.336728380224635,48.87858749586786],"type":"Point"},"properties":{"type":"WC","statut":"En service","adresse":"31 rue notre dame de lorette","arrondissement":"75009","horaire":"Horaires du parc","acces_pmr":"Non","relais_bebe":"Non","url_fiche_equipement":"https:\/\/www.paris.fr\/lieux\/square-alex-biscarre-2464","geo_point_2d":{"lon":2.336728380224635,"lat":48.87858749586786}}},{"type":"Feature","geometry":{"coordinates":[2.3335029995805887,48.88355600007844],"type":"Point"},"properties":{"type":"Sanisette","statut":"En service","adresse":"74 bd de clichy","arrondissement":"75009","horaire":"06h00 - 22h00","acces_pmr":"Oui","relais_bebe":"Non","url_fiche_equipement":null,"geo_point_2d":{"lon":2.3335029995805887,"lat":48.88355600007844}}},{"type":"Feature","geometry":{"coordinates":[2.3654770003332772,48.87184499980991],"type":"Point"},"properties":{"type":"Sanisette","statut":"En service","adresse":"1 av richerand","arrondissement":"75010","horaire":"06h00 - 22h00","acces_pmr":"Oui","relais_bebe":"Non","url_fiche_equipement":null,"geo_point_2d":{"lon":2.3654770003332772,"lat":48.87184499980991}}},{"type":"Feature","geometry":{"coordinates":[2.362746272451846,48.874592990978734],"type":"Point"},"properties":{"type":"Sanisette","statut":"En service","adresse":"8 rue des recollets","arrondissement":"75010","horaire":"Horaires du parc","acces_pmr":"Oui","relais_bebe":"Non","url_fiche_equipement":"https:\/\/www.paris.fr\/lieux\/jardin-villemin-1798","geo_point_2d":{"lon":2.362746272451846,"lat":48.874592990978734}}},{"type":"Feature","geometry":{"coordinates":[2.354575000128536,48.87075900013074],"type":"Point"},"properties":{"type":"Sanisette","statut":"En service","adresse":"2 rue de metz","arrondissement":"75010","horaire":"06h00 - 22h00","acces_pmr":"Oui","relais_bebe":"Non","url_fiche_equipement":null,"geo_point_2d":{"lon":2.354575000128536,"lat":48.87075900013074}}},{"type":"Feature","geometry":{"coordinates":[2.372206000330588,48.876193000062784],"type":"Point"},"properties":{"type":"Sanisette","statut":"En service","adresse":"57 bd de la villette","arrondissement":"75010","horaire":"06h00 - 22h00","acces_pmr":"Oui","relais_bebe":"Non","url_fiche_equipement":null,"geo_point_2d":{"lon":2.372206000330588,"lat":48.876193000062784}}},{"type":"Feature","geometry":{"coordinates":[2.3793530002626153,48.85705699961709],"type":"Point"},"properties":{"type":"Sanisette","statut":"En service","adresse":"170 av ledru-rollin","arrondissement":"75011","horaire":"06h00 - 22h00","acces_pmr":"Oui","relais_bebe":"Non","url_fiche_equipement":null,"geo_point_2d":{"lon":2.3793530002626153,"lat":48.85705699961709}}},{"type":"Feature","geometry":{"coordinates":[2.411279000289181,48.84620599974493],"type":"Point"},"properties":{"type":"Sanisette","statut":"En service","adresse":"4 rue fernand foureau","arrondissement":"75012","horaire":"06h00 - 22h00","acces_pmr":"Oui","relais_bebe":"Non","url_fiche_equipement":null,"geo_point_2d":{"lon":2.411279000289181,"lat":48.84620599974493}}},{"type":"Feature","geometry":{"coordinates":[2.3603105337704053,48.81872280496346],"type":"Point"},"properties":{"type":"WC","statut":"En service","adresse":"2 rue fernand widal","arrondissement":"75013","horaire":"Horaires du parc","acces_pmr":"Oui","relais_bebe":"Non","url_fiche_equipement":"https:\/\/www.paris.fr\/lieux\/square-helene-boucher-2513","geo_point_2d":{"lon":2.3603105337704053,"lat":48.81872280496346}}},{"type":"Feature","geometry":{"coordinates":[2.3766289996508227,48.828350000238366],"type":"Point"},"properties":{"type":"Sanisette","statut":"En service","adresse":"40 rue du chevaleret","arrondissement":"75013","horaire":"06h00 - 22h00","acces_pmr":"Oui","relais_bebe":"Non","url_fiche_equipement":null,"geo_point_2d":{"lon":2.3766289996508227,"lat":48.828350000238366}}},{"type":"Feature","geometry":{"coordinates":[2.3575760003024606,48.818985999956716],"type":"Point"},"properties":{"type":"Sanisette","statut":"En service","adresse":"5 bd kellermann","arrondissement":"75013","horaire":"06h00 - 22h00","acces_pmr":"Oui","relais_bebe":"Non","url_fiche_equipement":null,"geo_point_2d":{"lon":2.3575760003024606,"lat":48.818985999956716}}},{"type":"Feature","geometry":{"coordinates":[2.3418059999088467,48.82669999980564],"type":"Point"},"properties":{"type":"Sanisette","statut":"En service","adresse":"129 rue de la glaciere","arrondissement":"75013","horaire":"06h00 - 22h00","acces_pmr":"Oui","relais_bebe":"Non","url_fiche_equipement":null,"geo_point_2d":{"lon":2.3418059999088467,"lat":48.82669999980564}}},{"type":"Feature","geometry":{"coordinates":[2.311417000462912,48.82765799983502],"type":"Point"},"properties":{"type":"Sanisette","statut":"En service","adresse":"2 v rue des mariniers","arrondissement":"75014","horaire":"06h00 - 22h00","acces_pmr":"Oui","relais_bebe":"Non","url_fiche_equipement":null,"geo_point_2d":{"lon":2.311417000462912,"lat":48.82765799983502}}},{"type":"Feature","geometry":{"coordinates":[2.3053559995891075,48.82624000023127],"type":"Point"},"properties":{"type":"Sanisette","statut":"En service","adresse":"1 s rue maurice nogues","arrondissement":"75014","horaire":"06h00 - 22h00","acces_pmr":"Oui","relais_bebe":"Non","url_fiche_equipement":null,"geo_point_2d":{"lon":2.3053559995891075,"lat":48.82624000023127}}},{"type":"Feature","geometry":{"coordinates":[2.304142778577189,48.89189723662848],"type":"Point"},"properties":{"type":"WC","statut":"En service","adresse":"6 place paul tortelier","arrondissement":"75017","horaire":"Horaires du parc","acces_pmr":"Non","relais_bebe":"Non","url_fiche_equipement":"https:\/\/www.paris.fr\/lieux\/jardin-claire-motte-2820","geo_point_2d":{"lon":2.304142778577189,"lat":48.89189723662848}}},{"type":"Feature","geometry":{"coordinates":[2.295708000355636,48.87497799960401],"type":"Point"},"properties":{"type":"Sanisette","statut":"En service","adresse":"1 av de wagram","arrondissement":"75017","horaire":"06h00 - 22h00","acces_pmr":"Oui","relais_bebe":"Non","url_fiche_equipement":null,"geo_point_2d":{"lon":2.295708000355636,"lat":48.87497799960401}}},{"type":"Feature","geometry":{"coordinates":[2.2955319997723596,48.88150300016054],"type":"Point"},"properties":{"type":"Sanisette","statut":"En service","adresse":"2 v pl aime maillart","arrondissement":"75017","horaire":"06h00 - 22h00","acces_pmr":"Oui","relais_bebe":"Non","url_fiche_equipement":null,"geo_point_2d":{"lon":2.2955319997723596,"lat":48.88150300016054}}},{"type":"Feature","geometry":{"coordinates":[2.3451110000948807,48.88912500041226],"type":"Point"},"properties":{"type":"Sanisette","statut":"En service","adresse":"1 v pl jean gabin","arrondissement":"75018","horaire":"06h00 - 22h00","acces_pmr":"Oui","relais_bebe":"Non","url_fiche_equipement":null,"geo_point_2d":{"lon":2.3451110000948807,"lat":48.88912500041226}}},{"type":"Feature","geometry":{"coordinates":[2.363820903429186,48.8966156453422],"type":"Point"},"properties":{"type":"WC","statut":"Hors service","adresse":"7 nd cd\/18","arrondissement":"75018","horaire":"Horaires du parc","acces_pmr":"Oui","relais_bebe":"Non","url_fiche_equipement":null,"geo_point_2d":{"lon":2.363820903429186,"lat":48.8966156453422}}},{"type":"Feature","geometry":{"coordinates":[2.328972999602953,48.88421400037466],"type":"Point"},"properties":{"type":"Sanisette","statut":"En service","adresse":"130 v bd de clichy","arrondissement":"75018","horaire":"06h00 - 22h00","acces_pmr":"Oui","relais_bebe":"Non","url_fiche_equipement":null,"geo_point_2d":{"lon":2.328972999602953,"lat":48.88421400037466}}},{"type":"Feature","geometry":{"coordinates":[2.3417379994179384,48.89777199983381],"type":"Point"},"properties":{"type":"Sanisette","statut":"En service","adresse":"9 imp alexandre lecuyer","arrondissement":"75018","horaire":"06h00 - 22h00","acces_pmr":"Oui","relais_bebe":"Non","url_fiche_equipement":null,"geo_point_2d":{"lon":2.3417379994179384,"lat":48.89777199983381}}},{"type":"Feature","geometry":{"coordinates":[2.345855999825567,48.88324600019954],"type":"Point"},"properties":{"type":"Sanisette","statut":"En service","adresse":"52 bd marguerite de rochechouart","arrondissement":"75018","horaire":"06h00 - 22h00","acces_pmr":"Oui","relais_bebe":"Non","url_fiche_equipement":null,"geo_point_2d":{"lon":2.345855999825567,"lat":48.88324600019954}}},{"type":"Feature","geometry":{"coordinates":[2.3814320001101352,48.88303199992398],"type":"Point"},"properties":{"type":"Sanisette","statut":"En service","adresse":"2 av de laumiere","arrondissement":"75019","horaire":"06h00 - 22h00","acces_pmr":"Oui","relais_bebe":"Non","url_fiche_equipement":null,"geo_point_2d":{"lon":2.3814320001101352,"lat":48.88303199992398}}},{"type":"Feature","geometry":{"coordinates":[2.389873999903682,48.86840100026175],"type":"Point"},"properties":{"type":"Sanisette","statut":"En service","adresse":"6 rue sorbier","arrondissement":"75020","horaire":"06h00 - 22h00","acces_pmr":"Oui","relais_bebe":"Non","url_fiche_equipement":null,"geo_point_2d":{"lon":2.389873999903682,"lat":48.86840100026175}}},{"type":"Feature","geometry":{"coordinates":[2.384968920960215,48.87154116048027],"type":"Point"},"properties":{"type":"WC","statut":"En service","adresse":"45 rue des couronnes","arrondissement":"75020","horaire":"Horaires du parc","acces_pmr":"Oui","relais_bebe":"Non","url_fiche_equipement":"https:\/\/www.paris.fr\/lieux\/jardin-des-couronnes-2748","geo_point_2d":{"lon":2.384968920960215,"lat":48.87154116048027}}},{"type":"Feature","geometry":{"coordinates":[2.40103099972282,48.86001899986408],"type":"Point"},"properties":{"type":"Sanisette","statut":"En service","adresse":"171 rue des pyrenees","arrondissement":"75020","horaire":"06h00 - 22h00","acces_pmr":"Oui","relais_bebe":"Non","url_fiche_equipement":null,"geo_point_2d":{"lon":2.40103099972282,"lat":48.86001899986408}}},{"type":"Feature","geometry":{"coordinates":[2.342529116536389,48.8635329953232],"type":"Point"},"properties":{"type":"WC","statut":"En service","adresse":"32 rue berger","arrondissement":"75001","horaire":"Horaires du parc","acces_pmr":"Oui","relais_bebe":"Non","url_fiche_equipement":null,"geo_point_2d":{"lon":2.342529116536389,"lat":48.8635329953232}}},{"type":"Feature","geometry":{"coordinates":[2.3422090001035785,48.86235400010427],"type":"Point"},"properties":{"type":"Sanisette","statut":"En service","adresse":"44 rue berger","arrondissement":"75001","horaire":"06h00 - 22h00","acces_pmr":"Oui","relais_bebe":"Non","url_fiche_equipement":null,"geo_point_2d":{"lon":2.3422090001035785,"lat":48.86235400010427}}},{"type":"Feature","geometry":{"coordinates":[2.3540127664042605,48.86734758386589],"type":"Point"},"properties":{"type":"Sanisette","statut":"En service","adresse":"98 boulevard de sebastopol","arrondissement":"75003","horaire":"Horaires du parc","acces_pmr":"Oui","relais_bebe":"Non","url_fiche_equipement":"https:\/\/www.paris.fr\/lieux\/square-emile-chautemps-2421","geo_point_2d":{"lon":2.3540127664042605,"lat":48.86734758386589}}},{"type":"Feature","geometry":{"coordinates":[2.365276627759591,48.85522108096124],"type":"Point"},"properties":{"type":"WC","statut":"En service","adresse":"1 place des vosges","arrondissement":"75004","horaire":"Horaires du parc","acces_pmr":"Non","relais_bebe":"Non","url_fiche_equipement":"https:\/\/www.paris.fr\/lieux\/square-louis-xiii-36","geo_point_2d":{"lon":2.365276627759591,"lat":48.85522108096124}}},{"type":"Feature","geometry":{"coordinates":[2.350380999814234,48.86022100024615],"type":"Point"},"properties":{"type":"Sanisette","statut":"En service","adresse":"6 rue aubry le boucher","arrondissement":"75004","horaire":"06h00 - 22h00","acces_pmr":"Oui","relais_bebe":"Non","url_fiche_equipement":null,"geo_point_2d":{"lon":2.350380999814234,"lat":48.86022100024615}}},{"type":"Feature","geometry":{"coordinates":[2.3309899996955994,48.85445899991381],"type":"Point"},"properties":{"type":"Sanisette","statut":"En service","adresse":"184b bd saint-germain","arrondissement":"75006","horaire":"24\/24h","acces_pmr":"Oui","relais_bebe":"Non","url_fiche_equipement":null,"geo_point_2d":{"lon":2.3309899996955994,"lat":48.85445899991381}}},{"type":"Feature","geometry":{"coordinates":[2.310900000016987,48.862506999594046],"type":"Point"},"properties":{"type":"Sanisette","statut":"En service","adresse":"41b qu d'orsay","arrondissement":"75007","horaire":"24\/24h","acces_pmr":"Oui","relais_bebe":"Non","url_fiche_equipement":null,"geo_point_2d":{"lon":2.310900000016987,"lat":48.862506999594046}}},{"type":"Feature","geometry":{"coordinates":[2.358600000445668,48.87873399962815],"type":"Point"},"properties":{"type":"Sanisette","statut":"En service","adresse":"42 rue d'alsace","arrondissement":"75010","horaire":"06h00 - 22h00","acces_pmr":"Oui","relais_bebe":"Non","url_fiche_equipement":null,"geo_point_2d":{"lon":2.358600000445668,"lat":48.87873399962815}}},{"type":"Feature","geometry":{"coordinates":[2.3726620002059193,48.86174800033497],"type":"Point"},"properties":{"type":"Sanisette","statut":"En service","adresse":"86 bd richard lenoir","arrondissement":"75011","horaire":"06h00 - 22h00","acces_pmr":"Oui","relais_bebe":"Non","url_fiche_equipement":null,"geo_point_2d":{"lon":2.3726620002059193,"lat":48.86174800033497}}},{"type":"Feature","geometry":{"coordinates":[2.374601999852079,48.86058300021109],"type":"Point"},"properties":{"type":"Sanisette","statut":"En service","adresse":"6 imp truillot","arrondissement":"75011","horaire":"06h00 - 22h00","acces_pmr":"Oui","relais_bebe":"Non","url_fiche_equipement":null,"geo_point_2d":{"lon":2.374601999852079,"lat":48.86058300021109}}},{"type":"Feature","geometry":{"coordinates":[2.4204189876204447,48.84310448474707],"type":"Point"},"properties":{"type":"WC","statut":"Hors service","adresse":"2 carrefour de la pyramide","arrondissement":"75012","horaire":"Horaires du parc","acces_pmr":"Oui","relais_bebe":"Non","url_fiche_equipement":"https:\/\/www.paris.fr\/lieux\/parc-floral-de-paris-1","geo_point_2d":{"lon":2.4204189876204447,"lat":48.84310448474707}}},{"type":"Feature","geometry":{"coordinates":[2.376966217600214,48.850021923997524],"type":"Point"},"properties":{"type":"WC","statut":"En service","adresse":"6 rue antoine vallon","arrondissement":"75012","horaire":"Horaires du parc","acces_pmr":"Non","relais_bebe":"Non","url_fiche_equipement":"https:\/\/www.paris.fr\/lieux\/square-trousseau-2576","geo_point_2d":{"lon":2.376966217600214,"lat":48.850021923997524}}},{"type":"Feature","geometry":{"coordinates":[2.37115100002481,48.84924999991015],"type":"Point"},"properties":{"type":"Sanisette","statut":"En service","adresse":"2 v av daumesnil","arrondissement":"75012","horaire":"06h00 - 22h00","acces_pmr":"Oui","relais_bebe":"Non","url_fiche_equipement":null,"geo_point_2d":{"lon":2.37115100002481,"lat":48.84924999991015}}},{"type":"Feature","geometry":{"coordinates":[2.3676189245638684,48.84888019555787],"type":"Point"},"properties":{"type":"WC","statut":"En service","adresse":"11 boulevard de la bastille","arrondissement":"75012","horaire":"Horaires du parc","acces_pmr":"Oui","relais_bebe":"Non","url_fiche_equipement":"https:\/\/www.paris.fr\/lieux\/jardin-du-port-de-l-arsenal-1783","geo_point_2d":{"lon":2.3676189245638684,"lat":48.84888019555787}}},{"type":"Feature","geometry":{"coordinates":[2.458262733620495,48.822863313168874],"type":"Point"},"properties":{"type":"WC","statut":"En service","adresse":"2 carrefour de la pyramide","arrondissement":"75012","horaire":"Horaires du parc","acces_pmr":"Non","relais_bebe":"Non","url_fiche_equipement":"https:\/\/www.paris.fr\/lieux\/parc-floral-de-paris-1","geo_point_2d":{"lon":2.458262733620495,"lat":48.822863313168874}}},{"type":"Feature","geometry":{"coordinates":[2.358158000071719,48.82392400040274],"type":"Point"},"properties":{"type":"Sanisette","statut":"En service","adresse":"89 av d'italie","arrondissement":"75013","horaire":"06h00 - 22h00","acces_pmr":"Oui","relais_bebe":"Non","url_fiche_equipement":null,"geo_point_2d":{"lon":2.358158000071719,"lat":48.82392400040274}}},{"type":"Feature","geometry":{"coordinates":[2.3463720004044526,48.8349649999147],"type":"Point"},"properties":{"type":"Sanisette","statut":"En service","adresse":"43b bd arago","arrondissement":"75013","horaire":"06h00 - 22h00","acces_pmr":"Oui","relais_bebe":"Non","url_fiche_equipement":null,"geo_point_2d":{"lon":2.3463720004044526,"lat":48.8349649999147}}},{"type":"Feature","geometry":{"coordinates":[2.2790591009497088,48.84038080012922],"type":"Point"},"properties":{"type":"WC","statut":"En service","adresse":"2 rue de la montagne de la fage","arrondissement":"75015","horaire":"Horaires du parc","acces_pmr":"Non","relais_bebe":"Non","url_fiche_equipement":"https:\/\/www.paris.fr\/lieux\/parc-andre-citroen-1791","geo_point_2d":{"lon":2.2790591009497088,"lat":48.84038080012922}}},{"type":"Feature","geometry":{"coordinates":[2.2682330002198334,48.86236300033649],"type":"Point"},"properties":{"type":"Sanisette","statut":"En service","adresse":"2bv bd suchet","arrondissement":"75016","horaire":"06h00 - 22h00","acces_pmr":"Oui","relais_bebe":"Non","url_fiche_equipement":null,"geo_point_2d":{"lon":2.2682330002198334,"lat":48.86236300033649}}},{"type":"Feature","geometry":{"coordinates":[2.2630849998625098,48.83985200043711],"type":"Point"},"properties":{"type":"Sanisette","statut":"En service","adresse":"105 rue chardon-lagache","arrondissement":"75016","horaire":"06h00 - 22h00","acces_pmr":"Oui","relais_bebe":"Non","url_fiche_equipement":null,"geo_point_2d":{"lon":2.2630849998625098,"lat":48.83985200043711}}},{"type":"Feature","geometry":{"coordinates":[2.294483000629384,48.87893599967904],"type":"Point"},"properties":{"type":"Sanisette","statut":"En service","adresse":"4 av niel","arrondissement":"75017","horaire":"06h00 - 22h00","acces_pmr":"Oui","relais_bebe":"Non","url_fiche_equipement":null,"geo_point_2d":{"lon":2.294483000629384,"lat":48.87893599967904}}},{"type":"Feature","geometry":{"coordinates":[2.3595610006604915,48.89525799997793],"type":"Point"},"properties":{"type":"Sanisette","statut":"En service","adresse":"64 v rue de la chapelle","arrondissement":"75018","horaire":"06h00 - 22h00","acces_pmr":"Oui","relais_bebe":"Non","url_fiche_equipement":null,"geo_point_2d":{"lon":2.3595610006604915,"lat":48.89525799997793}}},{"type":"Feature","geometry":{"coordinates":[2.336451000082447,48.882676999876686],"type":"Point"},"properties":{"type":"Sanisette","statut":"En service","adresse":"4 v prom georges ulmer","arrondissement":"75018","horaire":"06h00 - 22h00","acces_pmr":"Oui","relais_bebe":"Non","url_fiche_equipement":null,"geo_point_2d":{"lon":2.336451000082447,"lat":48.882676999876686}}},{"type":"Feature","geometry":{"coordinates":[2.336828000433842,48.89346599973612],"type":"Point"},"properties":{"type":"Sanisette","statut":"En service","adresse":"59 rue des cloys","arrondissement":"75018","horaire":"06h00 - 22h00","acces_pmr":"Oui","relais_bebe":"Non","url_fiche_equipement":null,"geo_point_2d":{"lon":2.336828000433842,"lat":48.89346599973612}}},{"type":"Feature","geometry":{"coordinates":[2.3998249994463534,48.86489899973789],"type":"Point"},"properties":{"type":"Sanisette","statut":"En service","adresse":"1 rue du japon","arrondissement":"75020","horaire":"06h00 - 22h00","acces_pmr":"Oui","relais_bebe":"Non","url_fiche_equipement":null,"geo_point_2d":{"lon":2.3998249994463534,"lat":48.86489899973789}}},{"type":"Feature","geometry":{"coordinates":[2.395936999373824,48.85473800037653],"type":"Point"},"properties":{"type":"Sanisette","statut":"En service","adresse":"118 bd de charonne","arrondissement":"75020","horaire":"06h00 - 22h00","acces_pmr":"Oui","relais_bebe":"Non","url_fiche_equipement":null,"geo_point_2d":{"lon":2.395936999373824,"lat":48.85473800037653}}},{"type":"Feature","geometry":{"coordinates":[2.381853999881199,48.86836900011861],"type":"Point"},"properties":{"type":"Sanisette","statut":"En service","adresse":"34 bd de belleville","arrondissement":"75020","horaire":"06h00 - 22h00","acces_pmr":"Oui","relais_bebe":"Non","url_fiche_equipement":null,"geo_point_2d":{"lon":2.381853999881199,"lat":48.86836900011861}}},{"type":"Feature","geometry":{"coordinates":[2.409188000439303,48.87072500007379],"type":"Point"},"properties":{"type":"Sanisette","statut":"En service","adresse":"9 av de la porte de menilmontant","arrondissement":"75020","horaire":"06h00 - 22h00","acces_pmr":"Oui","relais_bebe":"Non","url_fiche_equipement":null,"geo_point_2d":{"lon":2.409188000439303,"lat":48.87072500007379}}},{"type":"Feature","geometry":{"coordinates":[2.3418320005004327,48.86316500012886],"type":"Point"},"properties":{"type":"Sanisette","statut":"En service","adresse":"39 rue jean-jacques rousseau","arrondissement":"75001","horaire":"06h00 - 22h00","acces_pmr":"Oui","relais_bebe":"Non","url_fiche_equipement":null,"geo_point_2d":{"lon":2.3418320005004327,"lat":48.86316500012886}}},{"type":"Feature","geometry":{"coordinates":[2.3516230003101315,48.864851999714816],"type":"Point"},"properties":{"type":"Sanisette","statut":"En service","adresse":"85 bd de sebastopol","arrondissement":"75002","horaire":"06h00 - 22h00","acces_pmr":"Oui","relais_bebe":"Non","url_fiche_equipement":null,"geo_point_2d":{"lon":2.3516230003101315,"lat":48.864851999714816}}},{"type":"Feature","geometry":{"coordinates":[2.3539869993359095,48.867368000158166],"type":"Point"},"properties":{"type":"Sanisette","statut":"En service","adresse":"1 rue salomon de caus","arrondissement":"75003","horaire":"06h00 - 22h00","acces_pmr":"Oui","relais_bebe":"Non","url_fiche_equipement":null,"geo_point_2d":{"lon":2.3539869993359095,"lat":48.867368000158166}}},{"type":"Feature","geometry":{"coordinates":[2.3513150004040457,48.8607969998681],"type":"Point"},"properties":{"type":"Sanisette","statut":"En service","adresse":"130 rue saint-martin","arrondissement":"75004","horaire":"06h00 - 22h00","acces_pmr":"Oui","relais_bebe":"Non","url_fiche_equipement":null,"geo_point_2d":{"lon":2.3513150004040457,"lat":48.8607969998681}}},{"type":"Feature","geometry":{"coordinates":[2.3439919994121317,48.84782200009687],"type":"Point"},"properties":{"type":"Sanisette","statut":"En service","adresse":"123 rue saint-jacques","arrondissement":"75005","horaire":"06h00 - 22h00","acces_pmr":"Oui","relais_bebe":"Non","url_fiche_equipement":null,"geo_point_2d":{"lon":2.3439919994121317,"lat":48.84782200009687}}},{"type":"Feature","geometry":{"coordinates":[2.3590599814167366,48.848303078499335],"type":"Point"},"properties":{"type":"Urinoir femme","statut":"En service","adresse":"2 quai saint bernard","arrondissement":"75005","horaire":"Horaires du parc","acces_pmr":"Non","relais_bebe":"Non","url_fiche_equipement":"https:\/\/www.paris.fr\/lieux\/jardin-tino-rossi-1786","geo_point_2d":{"lon":2.3590599814167366,"lat":48.848303078499335}}},{"type":"Feature","geometry":{"coordinates":[2.3562390003168203,48.841318000011505],"type":"Point"},"properties":{"type":"Sanisette","statut":"En service","adresse":"26 rue buffon","arrondissement":"75005","horaire":"06h00 - 22h00","acces_pmr":"Oui","relais_bebe":"Non","url_fiche_equipement":null,"geo_point_2d":{"lon":2.3562390003168203,"lat":48.841318000011505}}},{"type":"Feature","geometry":{"coordinates":[2.3180510003316344,48.86516300032715],"type":"Point"},"properties":{"type":"Sanisette","statut":"En service","adresse":"2 crs la reine","arrondissement":"75008","horaire":"24\/24h","acces_pmr":"Oui","relais_bebe":"Non","url_fiche_equipement":null,"geo_point_2d":{"lon":2.3180510003316344,"lat":48.86516300032715}}},{"type":"Feature","geometry":{"coordinates":[2.3666020002139914,48.87004800003424],"type":"Point"},"properties":{"type":"Sanisette","statut":"En service","adresse":"54 qu de jemmapes","arrondissement":"75010","horaire":"06h00 - 22h00","acces_pmr":"Oui","relais_bebe":"Non","url_fiche_equipement":null,"geo_point_2d":{"lon":2.3666020002139914,"lat":48.87004800003424}}},{"type":"Feature","geometry":{"coordinates":[2.365234000168771,48.8680320000993],"type":"Point"},"properties":{"type":"Sanisette","statut":"En service","adresse":"7 rue du faubourg du temple","arrondissement":"75010","horaire":"06h00 - 22h00","acces_pmr":"Oui","relais_bebe":"Non","url_fiche_equipement":null,"geo_point_2d":{"lon":2.365234000168771,"lat":48.8680320000993}}},{"type":"Feature","geometry":{"coordinates":[2.3809620003827687,48.86568599967996],"type":"Point"},"properties":{"type":"Sanisette","statut":"En service","adresse":"18 av jean aicard","arrondissement":"75011","horaire":"06h00 - 22h00","acces_pmr":"Oui","relais_bebe":"Non","url_fiche_equipement":null,"geo_point_2d":{"lon":2.3809620003827687,"lat":48.86568599967996}}},{"type":"Feature","geometry":{"coordinates":[2.37656199946577,48.846122000363245],"type":"Point"},"properties":{"type":"Sanisette","statut":"En service","adresse":"32 bd diderot","arrondissement":"75012","horaire":"24\/24h","acces_pmr":"Oui","relais_bebe":"Non","url_fiche_equipement":null,"geo_point_2d":{"lon":2.37656199946577,"lat":48.846122000363245}}},{"type":"Feature","geometry":{"coordinates":[2.4112259998051573,48.8441029998056],"type":"Point"},"properties":{"type":"Sanisette","statut":"En service","adresse":"6 av courteline","arrondissement":"75012","horaire":"06h00 - 22h00","acces_pmr":"Oui","relais_bebe":"Non","url_fiche_equipement":null,"geo_point_2d":{"lon":2.4112259998051573,"lat":48.8441029998056}}},{"type":"Feature","geometry":{"coordinates":[2.384212000518841,48.84711699958415],"type":"Point"},"properties":{"type":"Sanisette","statut":"En service","adresse":"57 bd diderot","arrondissement":"75012","horaire":"06h00 - 22h00","acces_pmr":"Oui","relais_bebe":"Non","url_fiche_equipement":null,"geo_point_2d":{"lon":2.384212000518841,"lat":48.84711699958415}}},{"type":"Feature","geometry":{"coordinates":[2.3748344955656324,48.826202786392535],"type":"Point"},"properties":{"type":"WC","statut":"En service","adresse":"34 rue du dessous des berges","arrondissement":"75013","horaire":"Horaires du parc","acces_pmr":"Non","relais_bebe":"Non","url_fiche_equipement":"https:\/\/www.paris.fr\/lieux\/jardin-berthe-morisot-2561","geo_point_2d":{"lon":2.3748344955656324,"lat":48.826202786392535}}},{"type":"Feature","geometry":{"coordinates":[2.3643766938524524,48.82304802120928],"type":"Point"},"properties":{"type":"WC","statut":"En service","adresse":"1 rue charles bertheau","arrondissement":"75013","horaire":"Horaires du parc","acces_pmr":"Non","relais_bebe":"Non","url_fiche_equipement":"https:\/\/www.paris.fr\/lieux\/jardin-baudricourt-2853","geo_point_2d":{"lon":2.3643766938524524,"lat":48.82304802120928}}},{"type":"Feature","geometry":{"coordinates":[2.379618709145078,48.82961672332092],"type":"Point"},"properties":{"type":"WC","statut":"En service","adresse":"25 rue thomas mann","arrondissement":"75013","horaire":"Horaires du parc","acces_pmr":"Oui","relais_bebe":"Non","url_fiche_equipement":"https:\/\/www.paris.fr\/lieux\/jardins-abbe-pierre-grands-moulins-5044","geo_point_2d":{"lon":2.379618709145078,"lat":48.82961672332092}}},{"type":"Feature","geometry":{"coordinates":[2.369023000521541,48.821251000296556],"type":"Point"},"properties":{"type":"Sanisette","statut":"En service","adresse":"77 bd massena","arrondissement":"75013","horaire":"06h00 - 22h00","acces_pmr":"Oui","relais_bebe":"Non","url_fiche_equipement":null,"geo_point_2d":{"lon":2.369023000521541,"lat":48.821251000296556}}},{"type":"Feature","geometry":{"coordinates":[2.331193000598376,48.83301699993433],"type":"Point"},"properties":{"type":"Sanisette","statut":"En service","adresse":"10 av du general leclerc","arrondissement":"75014","horaire":"06h00 - 22h00","acces_pmr":"Oui","relais_bebe":"Non","url_fiche_equipement":null,"geo_point_2d":{"lon":2.331193000598376,"lat":48.83301699993433}}},{"type":"Feature","geometry":{"coordinates":[2.2761964354273543,48.84174621365813],"type":"Point"},"properties":{"type":"WC","statut":"En service","adresse":"2 rue de la montagne de la fage","arrondissement":"75015","horaire":"Horaires du parc","acces_pmr":"Non","relais_bebe":"Non","url_fiche_equipement":"https:\/\/www.paris.fr\/lieux\/parc-andre-citroen-1791","geo_point_2d":{"lon":2.2761964354273543,"lat":48.84174621365813}}},{"type":"Feature","geometry":{"coordinates":[2.291110000602172,48.85724500040771],"type":"Point"},"properties":{"type":"Sanisette","statut":"En service","adresse":"73 qu jacques chirac","arrondissement":"75015","horaire":"06h00 - 22h00","acces_pmr":"Oui","relais_bebe":"Non","url_fiche_equipement":null,"geo_point_2d":{"lon":2.291110000602172,"lat":48.85724500040771}}},{"type":"Feature","geometry":{"coordinates":[2.2559780002277843,48.845887999766205],"type":"Point"},"properties":{"type":"Sanisette","statut":"En service","adresse":"16 av du general sarrail","arrondissement":"75016","horaire":"06h00 - 22h00","acces_pmr":"Oui","relais_bebe":"Non","url_fiche_equipement":null,"geo_point_2d":{"lon":2.2559780002277843,"lat":48.845887999766205}}},{"type":"Feature","geometry":{"coordinates":[2.3144877004250732,48.89161847331643],"type":"Point"},"properties":{"type":"WC","statut":"En service","adresse":"147 rue cardinet","arrondissement":"75017","horaire":"Horaires du parc","acces_pmr":"Oui","relais_bebe":"Non","url_fiche_equipement":null,"geo_point_2d":{"lon":2.3144877004250732,"lat":48.89161847331643}}},{"type":"Feature","geometry":{"coordinates":[2.3263190003680143,48.88566799997428],"type":"Point"},"properties":{"type":"Sanisette","statut":"En service","adresse":"25 av de clichy","arrondissement":"75017","horaire":"06h00 - 22h00","acces_pmr":"Oui","relais_bebe":"Non","url_fiche_equipement":null,"geo_point_2d":{"lon":2.3263190003680143,"lat":48.88566799997428}}},{"type":"Feature","geometry":{"coordinates":[2.3459840001934857,48.895789999814355],"type":"Point"},"properties":{"type":"Sanisette","statut":"En service","adresse":"51 v pl albert kahn","arrondissement":"75018","horaire":"06h00 - 22h00","acces_pmr":"Oui","relais_bebe":"Non","url_fiche_equipement":null,"geo_point_2d":{"lon":2.3459840001934857,"lat":48.895789999814355}}},{"type":"Feature","geometry":{"coordinates":[2.3402449995031565,48.900707999615555],"type":"Point"},"properties":{"type":"Sanisette","statut":"En service","adresse":"8 rue du lieutenant-colonel dax","arrondissement":"75018","horaire":"06h00 - 22h00","acces_pmr":"Non","relais_bebe":"Non","url_fiche_equipement":null,"geo_point_2d":{"lon":2.3402449995031565,"lat":48.900707999615555}}},{"type":"Feature","geometry":{"coordinates":[2.330284000482643,48.88440200017035],"type":"Point"},"properties":{"type":"Sanisette","statut":"En service","adresse":"118 v bd de clichy","arrondissement":"75018","horaire":"06h00 - 22h00","acces_pmr":"Oui","relais_bebe":"Non","url_fiche_equipement":null,"geo_point_2d":{"lon":2.330284000482643,"lat":48.88440200017035}}},{"type":"Feature","geometry":{"coordinates":[2.3377140002823458,48.8990230002305],"type":"Point"},"properties":{"type":"Sanisette","statut":"En service","adresse":"12 rue marcel sembat","arrondissement":"75018","horaire":"06h00 - 22h00","acces_pmr":"Oui","relais_bebe":"Non","url_fiche_equipement":null,"geo_point_2d":{"lon":2.3377140002823458,"lat":48.8990230002305}}},{"type":"Feature","geometry":{"coordinates":[2.3771520001702493,48.88659200023629],"type":"Point"},"properties":{"type":"Sanisette","statut":"En service","adresse":"68 qu de la loire","arrondissement":"75019","horaire":"06h00 - 22h00","acces_pmr":"Oui","relais_bebe":"Non","url_fiche_equipement":null,"geo_point_2d":{"lon":2.3771520001702493,"lat":48.88659200023629}}},{"type":"Feature","geometry":{"coordinates":[2.3851685144141865,48.8798695519275],"type":"Point"},"properties":{"type":"WC","statut":"En service","adresse":"7 rue botzaris","arrondissement":"75019","horaire":"Horaires du parc","acces_pmr":"Non","relais_bebe":"Non","url_fiche_equipement":"https:\/\/www.paris.fr\/lieux\/parc-des-buttes-chaumont-1757","geo_point_2d":{"lon":2.3851685144141865,"lat":48.8798695519275}}},{"type":"Feature","geometry":{"coordinates":[2.3834239996492426,48.883499999978575],"type":"Point"},"properties":{"type":"Sanisette","statut":"En service","adresse":"12b rue meynadier","arrondissement":"75019","horaire":"06h00 - 22h00","acces_pmr":"Oui","relais_bebe":"Non","url_fiche_equipement":null,"geo_point_2d":{"lon":2.3834239996492426,"lat":48.883499999978575}}},{"type":"Feature","geometry":{"coordinates":[2.3873090506008023,48.88106418703482],"type":"Point"},"properties":{"type":"WC","statut":"En service","adresse":"7 rue botzaris","arrondissement":"75019","horaire":"Horaires du parc","acces_pmr":"Non","relais_bebe":"Non","url_fiche_equipement":"https:\/\/www.paris.fr\/lieux\/parc-des-buttes-chaumont-1757","geo_point_2d":{"lon":2.3873090506008023,"lat":48.88106418703482}}},{"type":"Feature","geometry":{"coordinates":[2.4015086818295086,48.85581626708709],"type":"Point"},"properties":{"type":"WC","statut":"Hors service","adresse":"74 rue de la reunion","arrondissement":"75020","horaire":"Horaires du parc","acces_pmr":"Non","relais_bebe":"Non","url_fiche_equipement":"https:\/\/www.paris.fr\/lieux\/square-de-la-place-de-la-reunion-2705","geo_point_2d":{"lon":2.4015086818295086,"lat":48.85581626708709}}},{"type":"Feature","geometry":{"coordinates":[2.3833749997622435,48.866766000213],"type":"Point"},"properties":{"type":"Sanisette","statut":"En service","adresse":"139 v bd de menilmontant","arrondissement":"75020","horaire":"06h00 - 22h00","acces_pmr":"Oui","relais_bebe":"Non","url_fiche_equipement":null,"geo_point_2d":{"lon":2.3833749997622435,"lat":48.866766000213}}},{"type":"Feature","geometry":{"coordinates":[2.4097626243737658,48.86626191493033],"type":"Point"},"properties":{"type":"WC","statut":"En service","adresse":"1 rue le vau","arrondissement":"75020","horaire":"Horaires du parc","acces_pmr":"Non","relais_bebe":"Non","url_fiche_equipement":"https:\/\/www.paris.fr\/lieux\/square-severine-1776","geo_point_2d":{"lon":2.4097626243737658,"lat":48.86626191493033}}},{"type":"Feature","geometry":{"coordinates":[2.352738999879689,48.86683600014275],"type":"Point"},"properties":{"type":"Sanisette","statut":"En service","adresse":"109 bd de sebastopol","arrondissement":"75002","horaire":"06h00 - 22h00","acces_pmr":"Oui","relais_bebe":"Non","url_fiche_equipement":null,"geo_point_2d":{"lon":2.352738999879689,"lat":48.86683600014275}}},{"type":"Feature","geometry":{"coordinates":[2.3663139998987983,48.86356900029383],"type":"Point"},"properties":{"type":"Sanisette","statut":"En service","adresse":"9 bd du temple","arrondissement":"75003","horaire":"06h00 - 22h00","acces_pmr":"Oui","relais_bebe":"Non","url_fiche_equipement":null,"geo_point_2d":{"lon":2.3663139998987983,"lat":48.86356900029383}}},{"type":"Feature","geometry":{"coordinates":[2.3520940005625017,48.843135999716935],"type":"Point"},"properties":{"type":"Sanisette","statut":"En service","adresse":"75b rue monge","arrondissement":"75005","horaire":"06h00 - 22h00","acces_pmr":"Oui","relais_bebe":"Non","url_fiche_equipement":null,"geo_point_2d":{"lon":2.3520940005625017,"lat":48.843135999716935}}},{"type":"Feature","geometry":{"coordinates":[2.353552000228023,48.83742600028599],"type":"Point"},"properties":{"type":"Sanisette","statut":"En service","adresse":"78 bd saint-marcel","arrondissement":"75005","horaire":"06h00 - 22h00","acces_pmr":"Oui","relais_bebe":"Non","url_fiche_equipement":null,"geo_point_2d":{"lon":2.353552000228023,"lat":48.83742600028599}}},{"type":"Feature","geometry":{"coordinates":[2.3346000001385465,48.85274100024098],"type":"Point"},"properties":{"type":"Sanisette","statut":"En service","adresse":"17 rue du four","arrondissement":"75006","horaire":"06h00 - 22h00","acces_pmr":"Oui","relais_bebe":"Non","url_fiche_equipement":null,"geo_point_2d":{"lon":2.3346000001385465,"lat":48.85274100024098}}},{"type":"Feature","geometry":{"coordinates":[2.300204999518594,48.86520000007258],"type":"Point"},"properties":{"type":"Sanisette","statut":"En service","adresse":"2 av marceau","arrondissement":"75008","horaire":"24\/24h","acces_pmr":"Oui","relais_bebe":"Non","url_fiche_equipement":null,"geo_point_2d":{"lon":2.300204999518594,"lat":48.86520000007258}}},{"type":"Feature","geometry":{"coordinates":[2.331288517935493,48.876842785637415],"type":"Point"},"properties":{"type":"WC","statut":"En service","adresse":"1 place d' estienne d orves","arrondissement":"75009","horaire":"Horaires du parc","acces_pmr":"Non","relais_bebe":"Non","url_fiche_equipement":"https:\/\/www.paris.fr\/lieux\/square-d-estienne-d-orves-2472","geo_point_2d":{"lon":2.331288517935493,"lat":48.876842785637415}}},{"type":"Feature","geometry":{"coordinates":[2.383949000681867,48.858680999851344],"type":"Point"},"properties":{"type":"Sanisette","statut":"En service","adresse":"137 rue de la roquette","arrondissement":"75011","horaire":"06h00 - 22h00","acces_pmr":"Oui","relais_bebe":"Non","url_fiche_equipement":null,"geo_point_2d":{"lon":2.383949000681867,"lat":48.858680999851344}}},{"type":"Feature","geometry":{"coordinates":[2.387873999429428,48.85326799962916],"type":"Point"},"properties":{"type":"Sanisette","statut":"En service","adresse":"195 bd voltaire","arrondissement":"75011","horaire":"06h00 - 22h00","acces_pmr":"Oui","relais_bebe":"Non","url_fiche_equipement":null,"geo_point_2d":{"lon":2.387873999429428,"lat":48.85326799962916}}},{"type":"Feature","geometry":{"coordinates":[2.380934000066133,48.857198000446246],"type":"Point"},"properties":{"type":"Sanisette","statut":"En service","adresse":"53 rue richard lenoir","arrondissement":"75011","horaire":"06h00 - 22h00","acces_pmr":"Oui","relais_bebe":"Non","url_fiche_equipement":null,"geo_point_2d":{"lon":2.380934000066133,"lat":48.857198000446246}}},{"type":"Feature","geometry":{"coordinates":[2.3922959994127493,48.839177999838114],"type":"Point"},"properties":{"type":"Sanisette","statut":"En service","adresse":"26 bd de reuilly","arrondissement":"75012","horaire":"06h00 - 22h00","acces_pmr":"Oui","relais_bebe":"Non","url_fiche_equipement":null,"geo_point_2d":{"lon":2.3922959994127493,"lat":48.839177999838114}}},{"type":"Feature","geometry":{"coordinates":[2.4061405643321274,48.839537717674226],"type":"Point"},"properties":{"type":"WC","statut":"En service","adresse":"21 rue rottembourg","arrondissement":"75012","horaire":"Horaires du parc","acces_pmr":"Non","relais_bebe":"Non","url_fiche_equipement":"https:\/\/www.paris.fr\/lieux\/square-charles-peguy-2575","geo_point_2d":{"lon":2.4061405643321274,"lat":48.839537717674226}}},{"type":"Feature","geometry":{"coordinates":[2.3617356101503515,48.82782963723179],"type":"Point"},"properties":{"type":"WC","statut":"Hors service","adresse":"1 rue george eastman","arrondissement":"75013","horaire":"Horaires du parc","acces_pmr":"Oui","relais_bebe":"Oui","url_fiche_equipement":"https:\/\/www.paris.fr\/lieux\/parc-de-choisy-1803","geo_point_2d":{"lon":2.3617356101503515,"lat":48.82782963723179}}},{"type":"Feature","geometry":{"coordinates":[2.3549329192676653,48.818579099419416],"type":"Point"},"properties":{"type":"WC","statut":"En service","adresse":"19 rue de la poterne des peupliers","arrondissement":"75013","horaire":"Horaires du parc","acces_pmr":"Non","relais_bebe":"Non","url_fiche_equipement":"https:\/\/www.paris.fr\/lieux\/parc-kellermann-1794","geo_point_2d":{"lon":2.3549329192676653,"lat":48.818579099419416}}},{"type":"Feature","geometry":{"coordinates":[2.36879099996476,48.83519399972884],"type":"Point"},"properties":{"type":"Sanisette","statut":"En service","adresse":"44 v bd vincent auriol","arrondissement":"75013","horaire":"06h00 - 22h00","acces_pmr":"Oui","relais_bebe":"Non","url_fiche_equipement":null,"geo_point_2d":{"lon":2.36879099996476,"lat":48.83519399972884}}},{"type":"Feature","geometry":{"coordinates":[2.364581000006739,48.826838999890526],"type":"Point"},"properties":{"type":"Sanisette","statut":"En service","adresse":"92 rue de tolbiac","arrondissement":"75013","horaire":"06h00 - 22h00","acces_pmr":"Oui","relais_bebe":"Non","url_fiche_equipement":null,"geo_point_2d":{"lon":2.364581000006739,"lat":48.826838999890526}}},{"type":"Feature","geometry":{"coordinates":[2.341770000019688,48.83827600019253],"type":"Point"},"properties":{"type":"Sanisette","statut":"En service","adresse":"99 bd de port-royal","arrondissement":"75014","horaire":"06h00 - 22h00","acces_pmr":"Oui","relais_bebe":"Non","url_fiche_equipement":null,"geo_point_2d":{"lon":2.341770000019688,"lat":48.83827600019253}}},{"type":"Feature","geometry":{"coordinates":[2.3241460003250762,48.83489600037225],"type":"Point"},"properties":{"type":"Sanisette","statut":"En service","adresse":"131 av du maine","arrondissement":"75014","horaire":"06h00 - 22h00","acces_pmr":"Oui","relais_bebe":"Non","url_fiche_equipement":null,"geo_point_2d":{"lon":2.3241460003250762,"lat":48.83489600037225}}},{"type":"Feature","geometry":{"coordinates":[2.3155799994518778,48.83561300041891],"type":"Point"},"properties":{"type":"Sanisette","statut":"En service","adresse":"76 rue vercingetorix","arrondissement":"75014","horaire":"06h00 - 22h00","acces_pmr":"Oui","relais_bebe":"Non","url_fiche_equipement":null,"geo_point_2d":{"lon":2.3155799994518778,"lat":48.83561300041891}}},{"type":"Feature","geometry":{"coordinates":[2.303363000332393,48.82827099964057],"type":"Point"},"properties":{"type":"Sanisette","statut":"En service","adresse":"185 bd lefebvre","arrondissement":"75015","horaire":"06h00 - 22h00","acces_pmr":"Oui","relais_bebe":"Non","url_fiche_equipement":null,"geo_point_2d":{"lon":2.303363000332393,"lat":48.82827099964057}}},{"type":"Feature","geometry":{"coordinates":[2.2604170005449817,48.84844600004027],"type":"Point"},"properties":{"type":"Sanisette","statut":"En service","adresse":"118 bd de montmorency","arrondissement":"75016","horaire":"06h00 - 22h00","acces_pmr":"Oui","relais_bebe":"Non","url_fiche_equipement":null,"geo_point_2d":{"lon":2.2604170005449817,"lat":48.84844600004027}}},{"type":"Feature","geometry":{"coordinates":[2.2778989993259198,48.85084100025581],"type":"Point"},"properties":{"type":"Sanisette","statut":"En service","adresse":"7 v av de versailles","arrondissement":"75016","horaire":"06h00 - 22h00","acces_pmr":"Oui","relais_bebe":"Non","url_fiche_equipement":null,"geo_point_2d":{"lon":2.2778989993259198,"lat":48.85084100025581}}},{"type":"Feature","geometry":{"coordinates":[2.3143788261043468,48.89166543963781],"type":"Point"},"properties":{"type":"WC","statut":"En service","adresse":"147 rue cardinet","arrondissement":"75017","horaire":"Horaires du parc","acces_pmr":"Non","relais_bebe":"Non","url_fiche_equipement":null,"geo_point_2d":{"lon":2.3143788261043468,"lat":48.89166543963781}}},{"type":"Feature","geometry":{"coordinates":[2.315752564171945,48.89010284437884],"type":"Point"},"properties":{"type":"WC","statut":"Hors service","adresse":"147 rue cardinet","arrondissement":"75017","horaire":"Horaires du parc","acces_pmr":"Non","relais_bebe":"Non","url_fiche_equipement":null,"geo_point_2d":{"lon":2.315752564171945,"lat":48.89010284437884}}},{"type":"Feature","geometry":{"coordinates":[2.327515105424676,48.885658542356424],"type":"Point"},"properties":{"type":"WC","statut":"En service","adresse":"24 avenue de clichy","arrondissement":"75018","horaire":"Horaires du parc","acces_pmr":"Oui","relais_bebe":"Non","url_fiche_equipement":"https:\/\/www.paris.fr\/lieux\/square-des-deux-nethes-2765","geo_point_2d":{"lon":2.327515105424676,"lat":48.885658542356424}}},{"type":"Feature","geometry":{"coordinates":[2.3354129998428843,48.901022999656156],"type":"Point"},"properties":{"type":"Sanisette","statut":"En service","adresse":"1 v rue du docteur babinski","arrondissement":"75018","horaire":"06h00 - 22h00","acces_pmr":"Oui","relais_bebe":"Non","url_fiche_equipement":null,"geo_point_2d":{"lon":2.3354129998428843,"lat":48.901022999656156}}},{"type":"Feature","geometry":{"coordinates":[2.3650124921346753,48.886644543971286],"type":"Point"},"properties":{"type":"WC","statut":"En service","adresse":null,"arrondissement":"75018","horaire":"Horaires du parc","acces_pmr":"Oui","relais_bebe":"Non","url_fiche_equipement":"https:\/\/www.paris.fr\/lieux\/jardin-francoise-helene-jourda-ex-20-rue-du-departement-18075","geo_point_2d":{"lon":2.3650124921346753,"lat":48.886644543971286}}},{"type":"Feature","geometry":{"coordinates":[2.3836409649221526,48.881824766920786],"type":"Point"},"properties":{"type":"WC","statut":"En service","adresse":"7 rue botzaris","arrondissement":"75019","horaire":"Horaires du parc","acces_pmr":"Oui","relais_bebe":"Non","url_fiche_equipement":"https:\/\/www.paris.fr\/lieux\/parc-des-buttes-chaumont-1757","geo_point_2d":{"lon":2.3836409649221526,"lat":48.881824766920786}}},{"type":"Feature","geometry":{"coordinates":[2.3987808441159437,48.88101652135978],"type":"Point"},"properties":{"type":"WC","statut":"En service","adresse":"11 boulevard d algerie","arrondissement":"75019","horaire":"Horaires du parc","acces_pmr":"Oui","relais_bebe":"Non","url_fiche_equipement":"https:\/\/www.paris.fr\/lieux\/parc-de-la-butte-du-chapeau-rouge-1811","geo_point_2d":{"lon":2.3987808441159437,"lat":48.88101652135978}}},{"type":"Feature","geometry":{"coordinates":[2.3404727607557665,48.85875124442205],"type":"Point"},"properties":{"type":"Urinoir","statut":"En service","adresse":"28 quai du louvre","arrondissement":"75001","horaire":"10h00 - 22h00","acces_pmr":"Oui","relais_bebe":"Non","url_fiche_equipement":null,"geo_point_2d":{"lon":2.3404727607557665,"lat":48.85875124442205}}},{"type":"Feature","geometry":{"coordinates":[2.3539016527283474,48.853549579130835],"type":"Point"},"properties":{"type":"WC","statut":"En service","adresse":"6v quai de bourbon","arrondissement":"75004","horaire":"10h00 - 22h00","acces_pmr":"Oui","relais_bebe":"Non","url_fiche_equipement":null,"geo_point_2d":{"lon":2.3539016527283474,"lat":48.853549579130835}}},{"type":"Feature","geometry":{"coordinates":[2.349373388032164,48.848155306212256],"type":"Point"},"properties":{"type":"WC","statut":"En service","adresse":"20 rue monge","arrondissement":"75005","horaire":"Horaires du parc","acces_pmr":"Non","relais_bebe":"Non","url_fiche_equipement":"https:\/\/www.paris.fr\/lieux\/square-paul-langevin-2446","geo_point_2d":{"lon":2.349373388032164,"lat":48.848155306212256}}},{"type":"Feature","geometry":{"coordinates":[2.3204853892262167,48.85140130019359],"type":"Point"},"properties":{"type":"WC","statut":"En service","adresse":"29 rue de babylone","arrondissement":"75007","horaire":"Horaires du parc","acces_pmr":"Non","relais_bebe":"Non","url_fiche_equipement":"https:\/\/www.paris.fr\/lieux\/jardin-catherine-laboure-2465","geo_point_2d":{"lon":2.3204853892262167,"lat":48.85140130019359}}},{"type":"Feature","geometry":{"coordinates":[2.319582878541188,48.859172244960064],"type":"Point"},"properties":{"type":"WC","statut":"En service","adresse":"28 rue las cases","arrondissement":"75007","horaire":"Horaires du parc","acces_pmr":"Oui","relais_bebe":"Non","url_fiche_equipement":"https:\/\/www.paris.fr\/lieux\/square-samuel-rousseau-2467","geo_point_2d":{"lon":2.319582878541188,"lat":48.859172244960064}}},{"type":"Feature","geometry":{"coordinates":[2.3102040005778934,48.87015400026656],"type":"Point"},"properties":{"type":"Sanisette","statut":"En service","adresse":"4 av franklin d. roosevelt","arrondissement":"75008","horaire":"24\/24h","acces_pmr":"Oui","relais_bebe":"Non","url_fiche_equipement":null,"geo_point_2d":{"lon":2.3102040005778934,"lat":48.87015400026656}}},{"type":"Feature","geometry":{"coordinates":[2.3562779996613306,48.87578999993249],"type":"Point"},"properties":{"type":"Sanisette","statut":"En service","adresse":"114 rue du faubourg saint-denis","arrondissement":"75010","horaire":"06h00 - 22h00","acces_pmr":"Oui","relais_bebe":"Non","url_fiche_equipement":null,"geo_point_2d":{"lon":2.3562779996613306,"lat":48.87578999993249}}},{"type":"Feature","geometry":{"coordinates":[2.3746801075180075,48.86057160535726],"type":"Point"},"properties":{"type":"Sanisette","statut":"En service","adresse":"66 boulevard richard lenoir","arrondissement":"75011","horaire":"Horaires du parc","acces_pmr":"Oui","relais_bebe":"Non","url_fiche_equipement":"https:\/\/www.paris.fr\/lieux\/jardin-truillot-19195","geo_point_2d":{"lon":2.3746801075180075,"lat":48.86057160535726}}},{"type":"Feature","geometry":{"coordinates":[2.3787483756587955,48.861457471318396],"type":"Point"},"properties":{"type":"WC","statut":"En service","adresse":"8 rue du general blaise","arrondissement":"75011","horaire":"Horaires du parc","acces_pmr":"Non","relais_bebe":"Non","url_fiche_equipement":"https:\/\/www.paris.fr\/lieux\/square-maurice-gardette-2725","geo_point_2d":{"lon":2.3787483756587955,"lat":48.861457471318396}}},{"type":"Feature","geometry":{"coordinates":[2.3670590005979135,48.84601399979751],"type":"Point"},"properties":{"type":"Sanisette","statut":"En service","adresse":"98 v qu de la rapee","arrondissement":"75012","horaire":"24\/24h","acces_pmr":"Oui","relais_bebe":"Non","url_fiche_equipement":null,"geo_point_2d":{"lon":2.3670590005979135,"lat":48.84601399979751}}},{"type":"Feature","geometry":{"coordinates":[2.3737508079721197,48.83632168352183],"type":"Point"},"properties":{"type":"WC","statut":"En service","adresse":"7 rue george balanchine","arrondissement":"75013","horaire":"Horaires du parc","acces_pmr":"Non","relais_bebe":"Non","url_fiche_equipement":"https:\/\/www.paris.fr\/lieux\/jardin-james-joyce-2560","geo_point_2d":{"lon":2.3737508079721197,"lat":48.83632168352183}}},{"type":"Feature","geometry":{"coordinates":[2.3640220002201393,48.81960500001131],"type":"Point"},"properties":{"type":"Sanisette","statut":"En service","adresse":"117 bd massena","arrondissement":"75013","horaire":"06h00 - 22h00","acces_pmr":"Oui","relais_bebe":"Non","url_fiche_equipement":null,"geo_point_2d":{"lon":2.3640220002201393,"lat":48.81960500001131}}},{"type":"Feature","geometry":{"coordinates":[2.356523000078744,48.82806899973039],"type":"Point"},"properties":{"type":"Sanisette","statut":"En service","adresse":"46 av d'italie","arrondissement":"75013","horaire":"06h00 - 22h00","acces_pmr":"Oui","relais_bebe":"Non","url_fiche_equipement":null,"geo_point_2d":{"lon":2.356523000078744,"lat":48.82806899973039}}},{"type":"Feature","geometry":{"coordinates":[2.3398489381239456,48.8241625789515],"type":"Point"},"properties":{"type":"WC","statut":"En service","adresse":"28 boulevard jourdan","arrondissement":"75014","horaire":"Horaires du parc","acces_pmr":"Oui","relais_bebe":"Non","url_fiche_equipement":"https:\/\/www.paris.fr\/lieux\/jardin-et-aire-de-jeux-de-la-zac-alesia-montsouris-2867","geo_point_2d":{"lon":2.3398489381239456,"lat":48.8241625789515}}},{"type":"Feature","geometry":{"coordinates":[2.3056599996663603,48.827958000189895],"type":"Point"},"properties":{"type":"Sanisette","statut":"En service","adresse":"218 v rue raymond losserand","arrondissement":"75014","horaire":"06h00 - 22h00","acces_pmr":"Oui","relais_bebe":"Non","url_fiche_equipement":null,"geo_point_2d":{"lon":2.3056599996663603,"lat":48.827958000189895}}},{"type":"Feature","geometry":{"coordinates":[2.290481000526719,48.84481099995824],"type":"Point"},"properties":{"type":"Sanisette","statut":"En service","adresse":"5 pl violet","arrondissement":"75015","horaire":"06h00 - 22h00","acces_pmr":"Oui","relais_bebe":"Non","url_fiche_equipement":null,"geo_point_2d":{"lon":2.290481000526719,"lat":48.84481099995824}}},{"type":"Feature","geometry":{"coordinates":[2.3098449997509936,48.83641799985991],"type":"Point"},"properties":{"type":"Sanisette","statut":"En service","adresse":"2 pl falguiere","arrondissement":"75015","horaire":"06h00 - 22h00","acces_pmr":"Oui","relais_bebe":"Non","url_fiche_equipement":null,"geo_point_2d":{"lon":2.3098449997509936,"lat":48.83641799985991}}},{"type":"Feature","geometry":{"coordinates":[2.273727999432425,48.8477650001166],"type":"Point"},"properties":{"type":"Sanisette","statut":"En service","adresse":"2 pl de barcelone","arrondissement":"75016","horaire":"06h00 - 22h00","acces_pmr":"Oui","relais_bebe":"Non","url_fiche_equipement":null,"geo_point_2d":{"lon":2.273727999432425,"lat":48.8477650001166}}},{"type":"Feature","geometry":{"coordinates":[2.320485641171495,48.8954612989361],"type":"Point"},"properties":{"type":"WC","statut":"En service","adresse":"12 rue du colonel manhes","arrondissement":"75017","horaire":"Horaires du parc","acces_pmr":"Non","relais_bebe":"Non","url_fiche_equipement":"https:\/\/www.paris.fr\/lieux\/jardin-paul-didier-ex-colonel-manhes-2819","geo_point_2d":{"lon":2.320485641171495,"lat":48.8954612989361}}},{"type":"Feature","geometry":{"coordinates":[2.2943669996128166,48.887574000018475],"type":"Point"},"properties":{"type":"Sanisette","statut":"En service","adresse":"195 rue de courcelles","arrondissement":"75017","horaire":"06h00 - 22h00","acces_pmr":"Oui","relais_bebe":"Non","url_fiche_equipement":null,"geo_point_2d":{"lon":2.2943669996128166,"lat":48.887574000018475}}},{"type":"Feature","geometry":{"coordinates":[2.3438632119121188,48.88626726174863],"type":"Point"},"properties":{"type":"Lavatory","statut":"En service","adresse":"1 rue lamarck","arrondissement":"75018","horaire":"11h00-19h00","acces_pmr":"Non","relais_bebe":"Non","url_fiche_equipement":null,"geo_point_2d":{"lon":2.3438632119121188,"lat":48.88626726174863}}},{"type":"Feature","geometry":{"coordinates":[2.3271440004547537,48.89191899977726],"type":"Point"},"properties":{"type":"Sanisette","statut":"En service","adresse":"74 av de saint-ouen","arrondissement":"75018","horaire":"06h00 - 22h00","acces_pmr":"Oui","relais_bebe":"Non","url_fiche_equipement":null,"geo_point_2d":{"lon":2.3271440004547537,"lat":48.89191899977726}}},{"type":"Feature","geometry":{"coordinates":[2.3534120006044774,48.8856340001017],"type":"Point"},"properties":{"type":"Sanisette","statut":"En service","adresse":"17 rue polonceau","arrondissement":"75018","horaire":"06h00 - 22h00","acces_pmr":"Oui","relais_bebe":"Non","url_fiche_equipement":null,"geo_point_2d":{"lon":2.3534120006044774,"lat":48.8856340001017}}},{"type":"Feature","geometry":{"coordinates":[2.363815455797893,48.895558597727934],"type":"Point"},"properties":{"type":"WC","statut":"Hors service","adresse":"16 rue tristan tzara","arrondissement":"75018","horaire":"Horaires du parc","acces_pmr":"Oui","relais_bebe":"Non","url_fiche_equipement":"https:\/\/www.paris.fr\/lieux\/jardin-rachmaninov-2681","geo_point_2d":{"lon":2.363815455797893,"lat":48.895558597727934}}},{"type":"Feature","geometry":{"coordinates":[2.3560931672956853,48.88506257517637],"type":"Point"},"properties":{"type":"WC","statut":"En service","adresse":"16 rue de jessaint","arrondissement":"75018","horaire":"Horaires du parc","acces_pmr":"Non","relais_bebe":"Non","url_fiche_equipement":"https:\/\/www.paris.fr\/lieux\/square-alain-bashung-15429","geo_point_2d":{"lon":2.3560931672956853,"lat":48.88506257517637}}},{"type":"Feature","geometry":{"coordinates":[2.3517639999325417,48.89414899967719],"type":"Point"},"properties":{"type":"Sanisette","statut":"En service","adresse":"42 rue boinod","arrondissement":"75018","horaire":"06h00 - 22h00","acces_pmr":"Oui","relais_bebe":"Non","url_fiche_equipement":null,"geo_point_2d":{"lon":2.3517639999325417,"lat":48.89414899967719}}},{"type":"Feature","geometry":{"coordinates":[2.3758409999279495,48.887256000024],"type":"Point"},"properties":{"type":"Sanisette","statut":"En service","adresse":"46 qu de la seine","arrondissement":"75019","horaire":"06h00 - 22h00","acces_pmr":"Oui","relais_bebe":"Non","url_fiche_equipement":null,"geo_point_2d":{"lon":2.3758409999279495,"lat":48.887256000024}}},{"type":"Feature","geometry":{"coordinates":[2.38054299978079,48.87621299957802],"type":"Point"},"properties":{"type":"Sanisette","statut":"En service","adresse":"42 av simon bolivar","arrondissement":"75019","horaire":"06h00 - 22h00","acces_pmr":"Oui","relais_bebe":"Non","url_fiche_equipement":null,"geo_point_2d":{"lon":2.38054299978079,"lat":48.87621299957802}}},{"type":"Feature","geometry":{"coordinates":[2.4004340002685676,48.88066700014851],"type":"Point"},"properties":{"type":"Sanisette","statut":"En service","adresse":"8 bd d'algerie","arrondissement":"75019","horaire":"06h00 - 22h00","acces_pmr":"Oui","relais_bebe":"Non","url_fiche_equipement":null,"geo_point_2d":{"lon":2.4004340002685676,"lat":48.88066700014851}}},{"type":"Feature","geometry":{"coordinates":[2.3737530005285743,48.88817900034023],"type":"Point"},"properties":{"type":"Sanisette","statut":"En service","adresse":"60 av de flandre","arrondissement":"75019","horaire":"06h00 - 22h00","acces_pmr":"Oui","relais_bebe":"Non","url_fiche_equipement":null,"geo_point_2d":{"lon":2.3737530005285743,"lat":48.88817900034023}}},{"type":"Feature","geometry":{"coordinates":[2.3877480195818386,48.86597727781132],"type":"Point"},"properties":{"type":"Sanisette","statut":"En service","adresse":"26 rue duris","arrondissement":"75020","horaire":"Horaires du parc","acces_pmr":"Oui","relais_bebe":"Non","url_fiche_equipement":"https:\/\/www.paris.fr\/lieux\/square-des-amandiers-2700","geo_point_2d":{"lon":2.3877480195818386,"lat":48.86597727781132}}},{"type":"Feature","geometry":{"coordinates":[2.402572999497757,48.84911200033021],"type":"Point"},"properties":{"type":"Sanisette","statut":"En service","adresse":"1 rue de buzenval","arrondissement":"75020","horaire":"06h00 - 22h00","acces_pmr":"Oui","relais_bebe":"Non","url_fiche_equipement":null,"geo_point_2d":{"lon":2.402572999497757,"lat":48.84911200033021}}},{"type":"Feature","geometry":{"coordinates":[2.399128753613177,48.85873792521301],"type":"Point"},"properties":{"type":"WC","statut":"En service","adresse":"114 rue de la reunion","arrondissement":"75020","horaire":"Horaires du parc","acces_pmr":"Oui","relais_bebe":"Non","url_fiche_equipement":"https:\/\/www.paris.fr\/lieux\/jardin-lesseps-17432","geo_point_2d":{"lon":2.399128753613177,"lat":48.85873792521301}}},{"type":"Feature","geometry":{"coordinates":[2.3464810005605803,48.86027099976448],"type":"Point"},"properties":{"type":"Sanisette","statut":"En service","adresse":"1 rue de la lingerie","arrondissement":"75001","horaire":"06h00 - 22h00","acces_pmr":"Oui","relais_bebe":"Non","url_fiche_equipement":null,"geo_point_2d":{"lon":2.3464810005605803,"lat":48.86027099976448}}},{"type":"Feature","geometry":{"coordinates":[2.349579999718723,48.866804999596724],"type":"Point"},"properties":{"type":"Sanisette","statut":"En service","adresse":"73 rue reaumur","arrondissement":"75002","horaire":"06h00 - 22h00","acces_pmr":"Oui","relais_bebe":"Non","url_fiche_equipement":null,"geo_point_2d":{"lon":2.349579999718723,"lat":48.866804999596724}}},{"type":"Feature","geometry":{"coordinates":[2.3485479396362106,48.85311889213951],"type":"Point"},"properties":{"type":"Lavatory","statut":"En service","adresse":"6 pl du parvis notre-dame - place jean-paul ii","arrondissement":"75004","horaire":"10h00-20h00","acces_pmr":"Non","relais_bebe":"Non","url_fiche_equipement":null,"geo_point_2d":{"lon":2.3485479396362106,"lat":48.85311889213951}}},{"type":"Feature","geometry":{"coordinates":[2.3497979996411367,48.85820799978709],"type":"Point"},"properties":{"type":"Sanisette","statut":"En service","adresse":"14 rue saint-martin","arrondissement":"75004","horaire":"24\/24h","acces_pmr":"Oui","relais_bebe":"Non","url_fiche_equipement":null,"geo_point_2d":{"lon":2.3497979996411367,"lat":48.85820799978709}}},{"type":"Feature","geometry":{"coordinates":[2.366737000299422,48.84993799993057],"type":"Point"},"properties":{"type":"Sanisette","statut":"En service","adresse":"23 bd bourdon","arrondissement":"75004","horaire":"06h00 - 22h00","acces_pmr":"Oui","relais_bebe":"Non","url_fiche_equipement":null,"geo_point_2d":{"lon":2.366737000299422,"lat":48.84993799993057}}},{"type":"Feature","geometry":{"coordinates":[2.3493969996309874,48.85402499987285],"type":"Point"},"properties":{"type":"Sanisette","statut":"En service","adresse":"8 rue d'arcole","arrondissement":"75004","horaire":"06h00 - 22h00","acces_pmr":"Oui","relais_bebe":"Non","url_fiche_equipement":null,"geo_point_2d":{"lon":2.3493969996309874,"lat":48.85402499987285}}},{"type":"Feature","geometry":{"coordinates":[2.349242000048236,48.8538159998011],"type":"Point"},"properties":{"type":"Sanisette","statut":"En service","adresse":"10 rue d'arcole","arrondissement":"75004","horaire":"24\/24h","acces_pmr":"Oui","relais_bebe":"Non","url_fiche_equipement":null,"geo_point_2d":{"lon":2.349242000048236,"lat":48.8538159998011}}},{"type":"Feature","geometry":{"coordinates":[2.354806000036073,48.849386000305095],"type":"Point"},"properties":{"type":"Sanisette","statut":"En service","adresse":"9 bd saint-germain","arrondissement":"75005","horaire":"06h00 - 22h00","acces_pmr":"Oui","relais_bebe":"Non","url_fiche_equipement":null,"geo_point_2d":{"lon":2.354806000036073,"lat":48.849386000305095}}},{"type":"Feature","geometry":{"coordinates":[2.2964729998993914,48.85640899955829],"type":"Point"},"properties":{"type":"Sanisette","statut":"En service","adresse":"12 all thomy-thierry","arrondissement":"75007","horaire":"06h00 - 22h00","acces_pmr":"Oui","relais_bebe":"Non","url_fiche_equipement":null,"geo_point_2d":{"lon":2.2964729998993914,"lat":48.85640899955829}}},{"type":"Feature","geometry":{"coordinates":[2.3231299994343995,48.87058299996762],"type":"Point"},"properties":{"type":"Sanisette","statut":"En service","adresse":"4 bd malesherbes","arrondissement":"75008","horaire":"06h00 - 22h00","acces_pmr":"Oui","relais_bebe":"Non","url_fiche_equipement":null,"geo_point_2d":{"lon":2.3231299994343995,"lat":48.87058299996762}}},{"type":"Feature","geometry":{"coordinates":[2.3023690004899127,48.87464099983616],"type":"Point"},"properties":{"type":"Sanisette","statut":"En service","adresse":"1 v pl georges guillaumin","arrondissement":"75008","horaire":"06h00 - 22h00","acces_pmr":"Oui","relais_bebe":"Non","url_fiche_equipement":null,"geo_point_2d":{"lon":2.3023690004899127,"lat":48.87464099983616}}},{"type":"Feature","geometry":{"coordinates":[2.339160999797763,48.882071999650535],"type":"Point"},"properties":{"type":"Sanisette","statut":"En service","adresse":"1 v bd de clichy","arrondissement":"75009","horaire":"06h00 - 22h00","acces_pmr":"Oui","relais_bebe":"Non","url_fiche_equipement":null,"geo_point_2d":{"lon":2.339160999797763,"lat":48.882071999650535}}},{"type":"Feature","geometry":{"coordinates":[2.36058658232068,48.87495187559819],"type":"Point"},"properties":{"type":"WC","statut":"En service","adresse":"8 rue des recollets","arrondissement":"75010","horaire":"Horaires du parc","acces_pmr":"Non","relais_bebe":"Oui","url_fiche_equipement":"https:\/\/www.paris.fr\/lieux\/jardin-villemin-1798","geo_point_2d":{"lon":2.36058658232068,"lat":48.87495187559819}}},{"type":"Feature","geometry":{"coordinates":[2.353240999831761,48.88182600016088],"type":"Point"},"properties":{"type":"Sanisette","statut":"En service","adresse":"3 rue ambroise pare","arrondissement":"75010","horaire":"06h00 - 22h00","acces_pmr":"Oui","relais_bebe":"Non","url_fiche_equipement":null,"geo_point_2d":{"lon":2.353240999831761,"lat":48.88182600016088}}},{"type":"Feature","geometry":{"coordinates":[2.3720151300395567,48.85934672330581],"type":"Point"},"properties":{"type":"Sanisette","statut":"En service","adresse":"35 boulevard richard lenoir","arrondissement":"75011","horaire":"Horaires du parc","acces_pmr":"Oui","relais_bebe":"Non","url_fiche_equipement":"https:\/\/www.paris.fr\/lieux\/square-richard-lenoir-2837","geo_point_2d":{"lon":2.3720151300395567,"lat":48.85934672330581}}},{"type":"Feature","geometry":{"coordinates":[2.369807000478822,48.853532000369576],"type":"Point"},"properties":{"type":"Sanisette","statut":"En service","adresse":"14  bastille","arrondissement":"75011","horaire":"06h00 - 22h00","acces_pmr":"Oui","relais_bebe":"Non","url_fiche_equipement":null,"geo_point_2d":{"lon":2.369807000478822,"lat":48.853532000369576}}},{"type":"Feature","geometry":{"coordinates":[2.389097000091459,48.859211999816615],"type":"Point"},"properties":{"type":"Sanisette","statut":"En service","adresse":"13 bd de menilmontant","arrondissement":"75011","horaire":"06h00 - 22h00","acces_pmr":"Oui","relais_bebe":"Non","url_fiche_equipement":null,"geo_point_2d":{"lon":2.389097000091459,"lat":48.859211999816615}}},{"type":"Feature","geometry":{"coordinates":[2.3728630004242413,48.85488000020635],"type":"Point"},"properties":{"type":"Sanisette","statut":"En service","adresse":"29 rue de la roquette","arrondissement":"75011","horaire":"06h00 - 22h00","acces_pmr":"Oui","relais_bebe":"Non","url_fiche_equipement":null,"geo_point_2d":{"lon":2.3728630004242413,"lat":48.85488000020635}}},{"type":"Feature","geometry":{"coordinates":[2.4039959996640956,48.83323699980999],"type":"Point"},"properties":{"type":"Sanisette","statut":"En service","adresse":"8 rue joseph chailley","arrondissement":"75012","horaire":"06h00 - 22h00","acces_pmr":"Oui","relais_bebe":"Non","url_fiche_equipement":null,"geo_point_2d":{"lon":2.4039959996640956,"lat":48.83323699980999}}},{"type":"Feature","geometry":{"coordinates":[2.369429498040314,48.82536366341094],"type":"Point"},"properties":{"type":"WC","statut":"En service","adresse":"53 rue du chateau des rentiers","arrondissement":"75013","horaire":"Horaires du parc","acces_pmr":"Non","relais_bebe":"Non","url_fiche_equipement":"https:\/\/www.paris.fr\/lieux\/square-des-chamaillards-2858","geo_point_2d":{"lon":2.369429498040314,"lat":48.82536366341094}}},{"type":"Feature","geometry":{"coordinates":[2.3777156678661813,48.83197962734259],"type":"Point"},"properties":{"type":"WC","statut":"Hors service","adresse":"5 rue choderlos de laclos","arrondissement":"75013","horaire":"Horaires du parc","acces_pmr":"Non","relais_bebe":"Non","url_fiche_equipement":"https:\/\/www.paris.fr\/lieux\/jardin-georges-duhamel-2559","geo_point_2d":{"lon":2.3777156678661813,"lat":48.83197962734259}}},{"type":"Feature","geometry":{"coordinates":[2.377540668531616,48.828118124938314],"type":"Point"},"properties":{"type":"WC","statut":"En service","adresse":"46 rue des grands moulins","arrondissement":"75013","horaire":"Horaires du parc","acces_pmr":"Non","relais_bebe":"Non","url_fiche_equipement":"https:\/\/www.paris.fr\/lieux\/jardin-cyprian-norwid-2859","geo_point_2d":{"lon":2.377540668531616,"lat":48.828118124938314}}},{"type":"Feature","geometry":{"coordinates":[2.3512849996060785,48.826888000110166],"type":"Point"},"properties":{"type":"Sanisette","statut":"En service","adresse":"6 rue martin bernard","arrondissement":"75013","horaire":"06h00 - 22h00","acces_pmr":"Oui","relais_bebe":"Non","url_fiche_equipement":null,"geo_point_2d":{"lon":2.3512849996060785,"lat":48.826888000110166}}},{"type":"Feature","geometry":{"coordinates":[2.344515000507623,48.83113100037872],"type":"Point"},"properties":{"type":"Sanisette","statut":"En service","adresse":"100 bd auguste blanqui","arrondissement":"75013","horaire":"06h00 - 22h00","acces_pmr":"Oui","relais_bebe":"Non","url_fiche_equipement":null,"geo_point_2d":{"lon":2.344515000507623,"lat":48.83113100037872}}},{"type":"Feature","geometry":{"coordinates":[2.3477259994101534,48.81997300007583],"type":"Point"},"properties":{"type":"Sanisette","statut":"En service","adresse":"79 bd kellermann","arrondissement":"75013","horaire":"06h00 - 22h00","acces_pmr":"Oui","relais_bebe":"Non","url_fiche_equipement":null,"geo_point_2d":{"lon":2.3477259994101534,"lat":48.81997300007583}}},{"type":"Feature","geometry":{"coordinates":[2.316402799684797,48.83654537646535],"type":"Point"},"properties":{"type":"WC","statut":"En service","adresse":"54 rue vercingetorix","arrondissement":"75014","horaire":"Horaires du parc","acces_pmr":"Non","relais_bebe":"Non","url_fiche_equipement":"https:\/\/www.paris.fr\/lieux\/square-du-cardinal-wyszynski-2549","geo_point_2d":{"lon":2.316402799684797,"lat":48.83654537646535}}},{"type":"Feature","geometry":{"coordinates":[2.332932999675896,48.833046000436205],"type":"Point"},"properties":{"type":"Sanisette","statut":"En service","adresse":"1 v av rene coty","arrondissement":"75014","horaire":"06h00 - 22h00","acces_pmr":"Oui","relais_bebe":"Non","url_fiche_equipement":null,"geo_point_2d":{"lon":2.332932999675896,"lat":48.833046000436205}}},{"type":"Feature","geometry":{"coordinates":[2.2935714281377564,48.85258138739333],"type":"Point"},"properties":{"type":"WC","statut":"En service","adresse":"1 voie cv\/15","arrondissement":"75015","horaire":"Horaires du parc","acces_pmr":"Oui","relais_bebe":"Non","url_fiche_equipement":"https:\/\/www.paris.fr\/lieux\/square-nicole-de-hauteclocque-2558","geo_point_2d":{"lon":2.2935714281377564,"lat":48.85258138739333}}},{"type":"Feature","geometry":{"coordinates":[2.2863900005791047,48.86215399978413],"type":"Point"},"properties":{"type":"Sanisette","statut":"En service","adresse":"4 v av paul doumer","arrondissement":"75016","horaire":"06h00 - 22h00","acces_pmr":"Oui","relais_bebe":"Non","url_fiche_equipement":null,"geo_point_2d":{"lon":2.2863900005791047,"lat":48.86215399978413}}},{"type":"Feature","geometry":{"coordinates":[2.2906140246442765,48.88215739533499],"type":"Point"},"properties":{"type":"WC","statut":"En service","adresse":"57 rue bayen","arrondissement":"75017","horaire":"Horaires du parc","acces_pmr":"Non","relais_bebe":"Non","url_fiche_equipement":"https:\/\/www.paris.fr\/lieux\/square-olave-et-robert-baden-powell-ex-bayen-2630","geo_point_2d":{"lon":2.2906140246442765,"lat":48.88215739533499}}},{"type":"Feature","geometry":{"coordinates":[2.317249785037184,48.88719868625628],"type":"Point"},"properties":{"type":"WC","statut":"En service","adresse":"144 rue cardinet","arrondissement":"75017","horaire":"Horaires du parc","acces_pmr":"Non","relais_bebe":"Non","url_fiche_equipement":"https:\/\/www.paris.fr\/lieux\/square-des-batignolles-1761","geo_point_2d":{"lon":2.317249785037184,"lat":48.88719868625628}}},{"type":"Feature","geometry":{"coordinates":[2.3610720000476983,48.89147000027953],"type":"Point"},"properties":{"type":"Sanisette","statut":"En service","adresse":"46 pl de torcy","arrondissement":"75018","horaire":"06h00 - 22h00","acces_pmr":"Oui","relais_bebe":"Non","url_fiche_equipement":null,"geo_point_2d":{"lon":2.3610720000476983,"lat":48.89147000027953}}},{"type":"Feature","geometry":{"coordinates":[2.3464251036281003,48.89324524370296],"type":"Point"},"properties":{"type":"WC","statut":"En service","adresse":"36 square de clignancourt","arrondissement":"75018","horaire":"Horaires du parc","acces_pmr":"Non","relais_bebe":"Non","url_fiche_equipement":"https:\/\/www.paris.fr\/lieux\/square-maurice-kriegel-valrimont-ex-de-clignancourt-2651","geo_point_2d":{"lon":2.3464251036281003,"lat":48.89324524370296}}},{"type":"Feature","geometry":{"coordinates":[2.3812450003177807,48.87788200035503],"type":"Point"},"properties":{"type":"Sanisette","statut":"En service","adresse":"3 rue botzaris","arrondissement":"75019","horaire":"06h00 - 22h00","acces_pmr":"Oui","relais_bebe":"Non","url_fiche_equipement":null,"geo_point_2d":{"lon":2.3812450003177807,"lat":48.87788200035503}}},{"type":"Feature","geometry":{"coordinates":[2.398208999654319,48.87057599972035],"type":"Point"},"properties":{"type":"Sanisette","statut":"En service","adresse":"157 rue de menilmontant","arrondissement":"75020","horaire":"06h00 - 22h00","acces_pmr":"Oui","relais_bebe":"Non","url_fiche_equipement":null,"geo_point_2d":{"lon":2.398208999654319,"lat":48.87057599972035}}},{"type":"Feature","geometry":{"coordinates":[2.4097694489250627,48.865186750587874],"type":"Point"},"properties":{"type":"WC","statut":"En service","adresse":"1 rue le vau","arrondissement":"75020","horaire":"Horaires du parc","acces_pmr":"Oui","relais_bebe":"Non","url_fiche_equipement":"https:\/\/www.paris.fr\/lieux\/square-severine-1776","geo_point_2d":{"lon":2.4097694489250627,"lat":48.865186750587874}}},{"type":"Feature","geometry":{"coordinates":[2.329369999633761,48.87006399987241],"type":"Point"},"properties":{"type":"Sanisette","statut":"En service","adresse":"37 bd des capucines","arrondissement":"75002","horaire":"06h00 - 22h00","acces_pmr":"Oui","relais_bebe":"Non","url_fiche_equipement":null,"geo_point_2d":{"lon":2.329369999633761,"lat":48.87006399987241}}},{"type":"Feature","geometry":{"coordinates":[2.359337999553333,48.86275600006959],"type":"Point"},"properties":{"type":"Sanisette","statut":"En service","adresse":"25 rue pastourelle","arrondissement":"75003","horaire":"06h00 - 22h00","acces_pmr":"Oui","relais_bebe":"Non","url_fiche_equipement":null,"geo_point_2d":{"lon":2.359337999553333,"lat":48.86275600006959}}},{"type":"Feature","geometry":{"coordinates":[2.36070300013047,48.860068000390896],"type":"Point"},"properties":{"type":"Sanisette","statut":"En service","adresse":"2 rue des quatre fils","arrondissement":"75003","horaire":"06h00 - 22h00","acces_pmr":"Oui","relais_bebe":"Non","url_fiche_equipement":null,"geo_point_2d":{"lon":2.36070300013047,"lat":48.860068000390896}}},{"type":"Feature","geometry":{"coordinates":[2.349321267856243,48.8577865433105],"type":"Point"},"properties":{"type":"WC","statut":"En service","adresse":"1 rue saint martin","arrondissement":"75004","horaire":"Horaires du parc","acces_pmr":"Non","relais_bebe":"Non","url_fiche_equipement":"https:\/\/www.paris.fr\/lieux\/square-de-la-tour-saint-jacques-33","geo_point_2d":{"lon":2.349321267856243,"lat":48.8577865433105}}},{"type":"Feature","geometry":{"coordinates":[2.3507700001216016,48.84326200012617],"type":"Point"},"properties":{"type":"Sanisette","statut":"En service","adresse":"10 rue ortolan","arrondissement":"75005","horaire":"06h00 - 22h00","acces_pmr":"Oui","relais_bebe":"Non","url_fiche_equipement":null,"geo_point_2d":{"lon":2.3507700001216016,"lat":48.84326200012617}}},{"type":"Feature","geometry":{"coordinates":[2.337491000210142,48.841765000286124],"type":"Point"},"properties":{"type":"Sanisette","statut":"En service","adresse":"1 v pl ernest denis","arrondissement":"75006","horaire":"06h00 - 22h00","acces_pmr":"Oui","relais_bebe":"Non","url_fiche_equipement":null,"geo_point_2d":{"lon":2.337491000210142,"lat":48.841765000286124}}},{"type":"Feature","geometry":{"coordinates":[2.311350000458147,48.853583000261125],"type":"Point"},"properties":{"type":"Sanisette","statut":"En service","adresse":"11 v pl vauban","arrondissement":"75007","horaire":"06h00 - 22h00","acces_pmr":"Oui","relais_bebe":"Non","url_fiche_equipement":null,"geo_point_2d":{"lon":2.311350000458147,"lat":48.853583000261125}}},{"type":"Feature","geometry":{"coordinates":[2.343379000255218,48.88271599957815],"type":"Point"},"properties":{"type":"Sanisette","statut":"En service","adresse":"78 bd marguerite de rochechouart","arrondissement":"75009","horaire":"06h00 - 22h00","acces_pmr":"Oui","relais_bebe":"Non","url_fiche_equipement":null,"geo_point_2d":{"lon":2.343379000255218,"lat":48.88271599957815}}},{"type":"Feature","geometry":{"coordinates":[2.3550860001821023,48.87716500003902],"type":"Point"},"properties":{"type":"Sanisette","statut":"En service","adresse":"1 rue des petits hotels","arrondissement":"75010","horaire":"06h00 - 22h00","acces_pmr":"Oui","relais_bebe":"Non","url_fiche_equipement":null,"geo_point_2d":{"lon":2.3550860001821023,"lat":48.87716500003902}}},{"type":"Feature","geometry":{"coordinates":[2.3940091345940764,48.8547522462135],"type":"Point"},"properties":{"type":"WC","statut":"En service","adresse":"24 rue robert et sonia delaunay","arrondissement":"75011","horaire":"Horaires du parc","acces_pmr":"Non","relais_bebe":"Non","url_fiche_equipement":"https:\/\/www.paris.fr\/lieux\/jardin-damia-2734","geo_point_2d":{"lon":2.3940091345940764,"lat":48.8547522462135}}},{"type":"Feature","geometry":{"coordinates":[2.3760440001918792,48.86490000031819],"type":"Point"},"properties":{"type":"Sanisette","statut":"En service","adresse":"58 av de la republique","arrondissement":"75011","horaire":"06h00 - 22h00","acces_pmr":"Oui","relais_bebe":"Non","url_fiche_equipement":null,"geo_point_2d":{"lon":2.3760440001918792,"lat":48.86490000031819}}},{"type":"Feature","geometry":{"coordinates":[2.4046250000370883,48.840437999723655],"type":"Point"},"properties":{"type":"Sanisette","statut":"En service","adresse":"124 av du general michel bizot","arrondissement":"75012","horaire":"06h00 - 22h00","acces_pmr":"Oui","relais_bebe":"Non","url_fiche_equipement":null,"geo_point_2d":{"lon":2.4046250000370883,"lat":48.840437999723655}}},{"type":"Feature","geometry":{"coordinates":[2.4067865540145665,48.83470680271946],"type":"Point"},"properties":{"type":"WC","statut":"En service","adresse":"5 rue marcel dubois","arrondissement":"75012","horaire":"Horaires du parc","acces_pmr":"Non","relais_bebe":"Non","url_fiche_equipement":"https:\/\/www.paris.fr\/lieux\/square-van-vollenhoven-2593","geo_point_2d":{"lon":2.4067865540145665,"lat":48.83470680271946}}},{"type":"Feature","geometry":{"coordinates":[2.404424000410672,48.83652400037507],"type":"Point"},"properties":{"type":"Sanisette","statut":"En service","adresse":"259b av daumesnil","arrondissement":"75012","horaire":"06h00 - 22h00","acces_pmr":"Oui","relais_bebe":"Non","url_fiche_equipement":null,"geo_point_2d":{"lon":2.404424000410672,"lat":48.83652400037507}}},{"type":"Feature","geometry":{"coordinates":[2.3617629994569604,48.83965399978955],"type":"Point"},"properties":{"type":"Sanisette","statut":"En service","adresse":"55 w bd de l'hopital","arrondissement":"75013","horaire":"06h00 - 22h00","acces_pmr":"Oui","relais_bebe":"Non","url_fiche_equipement":null,"geo_point_2d":{"lon":2.3617629994569604,"lat":48.83965399978955}}},{"type":"Feature","geometry":{"coordinates":[2.3236001578901857,48.82225626602283],"type":"Point"},"properties":{"type":"WC","statut":"En service","adresse":"30 avenue ernest reyer","arrondissement":"75014","horaire":"Horaires du parc","acces_pmr":"Oui","relais_bebe":"Non","url_fiche_equipement":"https:\/\/www.paris.fr\/lieux\/square-du-serment-de-koufra-1773","geo_point_2d":{"lon":2.3236001578901857,"lat":48.82225626602283}}},{"type":"Feature","geometry":{"coordinates":[2.3443319997521512,48.8189959997807],"type":"Point"},"properties":{"type":"Sanisette","statut":"En service","adresse":"2 av pierre de coubertin","arrondissement":"75014","horaire":"06h00 - 22h00","acces_pmr":"Oui","relais_bebe":"Non","url_fiche_equipement":null,"geo_point_2d":{"lon":2.3443319997521512,"lat":48.8189959997807}}},{"type":"Feature","geometry":{"coordinates":[2.322543506474705,48.82795466191802],"type":"Point"},"properties":{"type":"WC","statut":"En service","adresse":"18 rue de chatillon","arrondissement":"75014","horaire":"Horaires du parc","acces_pmr":"Non","relais_bebe":"Non","url_fiche_equipement":"https:\/\/www.paris.fr\/lieux\/square-lionel-assouad-2735","geo_point_2d":{"lon":2.322543506474705,"lat":48.82795466191802}}},{"type":"Feature","geometry":{"coordinates":[2.308885999428817,48.846033999806316],"type":"Point"},"properties":{"type":"Sanisette","statut":"En service","adresse":"1 v pl de la republique de panama","arrondissement":"75015","horaire":"06h00 - 22h00","acces_pmr":"Oui","relais_bebe":"Non","url_fiche_equipement":null,"geo_point_2d":{"lon":2.308885999428817,"lat":48.846033999806316}}},{"type":"Feature","geometry":{"coordinates":[2.2947040778061325,48.867765583257565],"type":"Point"},"properties":{"type":"WC","statut":"Hors service","adresse":"1 place des etats unis","arrondissement":"75016","horaire":"Horaires du parc","acces_pmr":"Oui","relais_bebe":"Non","url_fiche_equipement":"https:\/\/www.paris.fr\/lieux\/square-thomas-jefferson-2606","geo_point_2d":{"lon":2.2947040778061325,"lat":48.867765583257565}}},{"type":"Feature","geometry":{"coordinates":[2.325236000174818,48.883118000401375],"type":"Point"},"properties":{"type":"Sanisette","statut":"En service","adresse":"20 v bd des batignolles","arrondissement":"75017","horaire":"06h00 - 22h00","acces_pmr":"Oui","relais_bebe":"Non","url_fiche_equipement":null,"geo_point_2d":{"lon":2.325236000174818,"lat":48.883118000401375}}},{"type":"Feature","geometry":{"coordinates":[2.3529850000351793,48.8963399997984],"type":"Point"},"properties":{"type":"Sanisette","statut":"En service","adresse":"136 rue des poissonniers","arrondissement":"75018","horaire":"06h00 - 22h00","acces_pmr":"Oui","relais_bebe":"Non","url_fiche_equipement":null,"geo_point_2d":{"lon":2.3529850000351793,"lat":48.8963399997984}}},{"type":"Feature","geometry":{"coordinates":[2.366157104749158,48.888348035569166],"type":"Point"},"properties":{"type":"WC","statut":"En service","adresse":null,"arrondissement":"75018","horaire":"Horaires du parc","acces_pmr":"Oui","relais_bebe":"Non","url_fiche_equipement":"https:\/\/www.paris.fr\/lieux\/jardin-francoise-helene-jourda-ex-20-rue-du-departement-18075","geo_point_2d":{"lon":2.366157104749158,"lat":48.888348035569166}}},{"type":"Feature","geometry":{"coordinates":[2.382729246215703,48.879452251121414],"type":"Point"},"properties":{"type":"WC","statut":"En service","adresse":"7 rue botzaris","arrondissement":"75019","horaire":"Horaires du parc","acces_pmr":"Non","relais_bebe":"Non","url_fiche_equipement":"https:\/\/www.paris.fr\/lieux\/parc-des-buttes-chaumont-1757","geo_point_2d":{"lon":2.382729246215703,"lat":48.879452251121414}}},{"type":"Feature","geometry":{"coordinates":[2.3827790219788856,48.882377968834255],"type":"Point"},"properties":{"type":"WC","statut":"En service","adresse":"7 rue botzaris","arrondissement":"75019","horaire":"Horaires du parc","acces_pmr":"Oui","relais_bebe":"Non","url_fiche_equipement":"https:\/\/www.paris.fr\/lieux\/parc-des-buttes-chaumont-1757","geo_point_2d":{"lon":2.3827790219788856,"lat":48.882377968834255}}},{"type":"Feature","geometry":{"coordinates":[2.3703740004690315,48.885789999828496],"type":"Point"},"properties":{"type":"Sanisette","statut":"En service","adresse":"1 rue du maroc","arrondissement":"75019","horaire":"06h00 - 22h00","acces_pmr":"Oui","relais_bebe":"Non","url_fiche_equipement":null,"geo_point_2d":{"lon":2.3703740004690315,"lat":48.885789999828496}}},{"type":"Feature","geometry":{"coordinates":[2.4091379994704725,48.86414400014382],"type":"Point"},"properties":{"type":"Sanisette","statut":"En service","adresse":"2 pl de la porte de bagnolet","arrondissement":"75020","horaire":"06h00 - 22h00","acces_pmr":"Oui","relais_bebe":"Non","url_fiche_equipement":null,"geo_point_2d":{"lon":2.4091379994704725,"lat":48.86414400014382}}},{"type":"Feature","geometry":{"coordinates":[2.4045350000751977,48.857055000000464],"type":"Point"},"properties":{"type":"Sanisette","statut":"En service","adresse":"114 rue des pyrenees","arrondissement":"75020","horaire":"06h00 - 22h00","acces_pmr":"Oui","relais_bebe":"Non","url_fiche_equipement":null,"geo_point_2d":{"lon":2.4045350000751977,"lat":48.857055000000464}}},{"type":"Feature","geometry":{"coordinates":[2.3897559999677913,48.8662639998932],"type":"Point"},"properties":{"type":"Sanisette","statut":"En service","adresse":"2 rue elisa borey","arrondissement":"75020","horaire":"06h00 - 22h00","acces_pmr":"Oui","relais_bebe":"Non","url_fiche_equipement":null,"geo_point_2d":{"lon":2.3897559999677913,"lat":48.8662639998932}}},{"type":"Feature","geometry":{"coordinates":[2.346046000240498,48.86275800006392],"type":"Point"},"properties":{"type":"Sanisette","statut":"En service","adresse":"107 rue rambuteau","arrondissement":"75001","horaire":"06h00 - 22h00","acces_pmr":"Oui","relais_bebe":"Non","url_fiche_equipement":null,"geo_point_2d":{"lon":2.346046000240498,"lat":48.86275800006392}}},{"type":"Feature","geometry":{"coordinates":[2.3558229999089435,48.85783900005621],"type":"Point"},"properties":{"type":"Sanisette","statut":"En service","adresse":"10b rue de moussy","arrondissement":"75004","horaire":"24\/24h","acces_pmr":"Oui","relais_bebe":"Non","url_fiche_equipement":null,"geo_point_2d":{"lon":2.3558229999089435,"lat":48.85783900005621}}},{"type":"Feature","geometry":{"coordinates":[2.353943110508907,48.838735231144916],"type":"Point"},"properties":{"type":"WC","statut":"En service","adresse":"23 rue du fer a moulin","arrondissement":"75005","horaire":"Horaires du parc","acces_pmr":"Non","relais_bebe":"Non","url_fiche_equipement":null,"geo_point_2d":{"lon":2.353943110508907,"lat":48.838735231144916}}},{"type":"Feature","geometry":{"coordinates":[2.3011940003051334,48.86882300008768],"type":"Point"},"properties":{"type":"Sanisette","statut":"En service","adresse":"32t av george v","arrondissement":"75008","horaire":"06h00 - 22h00","acces_pmr":"Oui","relais_bebe":"Non","url_fiche_equipement":null,"geo_point_2d":{"lon":2.3011940003051334,"lat":48.86882300008768}}},{"type":"Feature","geometry":{"coordinates":[2.341430000449094,48.882332000210475],"type":"Point"},"properties":{"type":"Sanisette","statut":"En service","adresse":"51 bd marguerite de rochechouart","arrondissement":"75009","horaire":"06h00 - 22h00","acces_pmr":"Oui","relais_bebe":"Non","url_fiche_equipement":null,"geo_point_2d":{"lon":2.341430000449094,"lat":48.882332000210475}}},{"type":"Feature","geometry":{"coordinates":[2.3658410001675967,48.870289999998704],"type":"Point"},"properties":{"type":"Sanisette","statut":"En service","adresse":"53 qu de valmy","arrondissement":"75010","horaire":"06h00 - 22h00","acces_pmr":"Oui","relais_bebe":"Non","url_fiche_equipement":null,"geo_point_2d":{"lon":2.3658410001675967,"lat":48.870289999998704}}},{"type":"Feature","geometry":{"coordinates":[2.375293808714896,48.8700197118485],"type":"Point"},"properties":{"type":"WC","statut":"En service","adresse":"1 rue jules verne","arrondissement":"75011","horaire":"Horaires du parc","acces_pmr":"Oui","relais_bebe":"Oui","url_fiche_equipement":"https:\/\/www.paris.fr\/lieux\/square-jules-verne-2841","geo_point_2d":{"lon":2.375293808714896,"lat":48.8700197118485}}},{"type":"Feature","geometry":{"coordinates":[2.3935230005132726,48.8347220001264],"type":"Point"},"properties":{"type":"Sanisette","statut":"En service","adresse":"283 rue de charenton","arrondissement":"75012","horaire":"06h00 - 22h00","acces_pmr":"Oui","relais_bebe":"Non","url_fiche_equipement":null,"geo_point_2d":{"lon":2.3935230005132726,"lat":48.8347220001264}}},{"type":"Feature","geometry":{"coordinates":[2.401190944045912,48.83625106996013],"type":"Point"},"properties":{"type":"WC","statut":"En service","adresse":"54 rue de fecamp","arrondissement":"75012","horaire":"Horaires du parc","acces_pmr":"Non","relais_bebe":"Non","url_fiche_equipement":"https:\/\/www.paris.fr\/lieux\/jardin-ilan-halimi-2595","geo_point_2d":{"lon":2.401190944045912,"lat":48.83625106996013}}},{"type":"Feature","geometry":{"coordinates":[2.3231750005795164,48.842188000361666],"type":"Point"},"properties":{"type":"Sanisette","statut":"En service","adresse":"23 rue du depart","arrondissement":"75014","horaire":"24\/24h","acces_pmr":"Oui","relais_bebe":"Non","url_fiche_equipement":null,"geo_point_2d":{"lon":2.3231750005795164,"lat":48.842188000361666}}},{"type":"Feature","geometry":{"coordinates":[2.311423000611557,48.832575000069404],"type":"Point"},"properties":{"type":"Sanisette","statut":"En service","adresse":"147 rue vercingetorix","arrondissement":"75014","horaire":"06h00 - 22h00","acces_pmr":"Oui","relais_bebe":"Non","url_fiche_equipement":null,"geo_point_2d":{"lon":2.311423000611557,"lat":48.832575000069404}}},